stop_id,stop_code,stop_name,stop_desc,stop_lat,stop_lon,stop_url,location_type,parent_station
14803,,9-ojo Forto g.,,54.93514,23.87908,https://www.stops.lt/kaunas/index.html#stop/3019,,
15621,,Didvyriai,,54.95209,23.77661,https://www.stops.lt/kaunas/index.html#stop/868,,
15539,,Girininkai,,54.76856,23.95766,https://www.stops.lt/kaunas/index.html#stop/852,,
15540,,Girininkai,,54.76903,23.95881,https://www.stops.lt/kaunas/index.html#stop/853,,
14622,,Kaniūkai,,54.91948,23.82979,https://www.stops.lt/kaunas/index.html#stop/2003,,
15508,,Kauno klinikinė ligoninė,,54.91553,23.85886,https://www.stops.lt/kaunas/index.html#stop/50a,,
15340,,Kautra,,54.87564,23.93705,https://www.stops.lt/kaunas/index.html#stop/3024,,
14458,,Kėdainių g.,,54.90765,23.87573,https://www.stops.lt/kaunas/index.html#stop/1002,,
15507,,Keleivių išlaipinimo aikštelė,,54.91611,23.86003,https://www.stops.lt/kaunas/index.html#stop/5001,,
14419,,Liucijanavos g.,,54.93546,23.83035,https://www.stops.lt/kaunas/index.html#stop/3006,,
14809,,Neveronys,,54.94024,24.13094,https://www.stops.lt/kaunas/index.html#stop/3020,,
14366,,Onkologijos ligoninė,,54.86094,23.97424,https://www.stops.lt/kaunas/index.html#stop/3012,,
14619,,Petrašiūnai,,54.88482,24.00803,https://www.stops.lt/kaunas/index.html#stop/2002,,
15592,,Plento g.,,54.85570,23.94904,https://www.stops.lt/kaunas/index.html#stop/3026,,
2927,,Raguoliai,,54.86129,24.05551,https://www.stops.lt/kaunas/index.html#stop/649,,
2928,,Raguoliai,,54.86098,24.05483,https://www.stops.lt/kaunas/index.html#stop/650,,
15553,,Respublikinė Kauno ligoninė,,54.87882,23.94589,https://www.stops.lt/kaunas/index.html#stop/4026,,
2914,,Ringaudai,,54.88470,23.78953,https://www.stops.lt/kaunas/index.html#stop/636,,
2915,,Ringaudai,,54.88437,23.78894,https://www.stops.lt/kaunas/index.html#stop/637,,
2912,,Ringaudų pradinė mokykla,,54.88790,23.79909,https://www.stops.lt/kaunas/index.html#stop/634,,
2913,,Ringaudų pradinė mokykla,,54.88827,23.80046,https://www.stops.lt/kaunas/index.html#stop/635,,
14323,,Stovėjimo aikštelė,,54.93833,23.89123,https://www.stops.lt/kaunas/index.html#stop/1001,,
2967,,Tabariškiai,,54.87933,23.78493,https://www.stops.lt/kaunas/index.html#stop/689,,
14421,,Tirkiliškiai,,54.85794,23.85710,https://www.stops.lt/kaunas/index.html#stop/3008,,
15638,,Urmo turgaus stovėjimo aikštelė,,54.91697,23.99822,https://www.stops.lt/kaunas/index.html#stop/856n,,
4986,,Urmo turgus,,54.91660,23.99627,https://www.stops.lt/kaunas/index.html#stop/3015,,
15472,,Vainatrakio kapinės,,54.78440,23.99877,https://www.stops.lt/kaunas/index.html#stop/850,,
14420,,Vaišvydava,,54.84347,24.04334,https://www.stops.lt/kaunas/index.html#stop/3007,,
2929,,Žiegždrių kryžkelė,,54.86964,24.06715,https://www.stops.lt/kaunas/index.html#stop/651,,
2930,,Žiegždrių kryžkelė,,54.86937,24.06658,https://www.stops.lt/kaunas/index.html#stop/652,,
5207,,Kapinės,,54.97171,24.03787,https://www.stops.lt/kaunas/index.html#stop/733,,
15489,,Švyturių g.,,54.94960,23.77689,https://www.stops.lt/kaunas/index.html#stop/851,,
15122,,Aukštutinių Kaniūkų g.,,54.92609,23.80348,https://www.stops.lt/kaunas/index.html#stop/815,,
15123,,Aukštutinių Kaniūkų g.,,54.92611,23.80332,https://www.stops.lt/kaunas/index.html#stop/816,,
15596,,Rietavo g.,,54.93127,23.88998,https://www.stops.lt/kaunas/index.html#stop/863,,
15203,,Biruliškių g.,,54.90738,24.02360,https://www.stops.lt/kaunas/index.html#stop/832,,
2740,,Partizanų g.,,54.91678,23.95387,https://www.stops.lt/kaunas/index.html#stop/460,,
2741,,Partizanų g.,,54.91807,23.95221,https://www.stops.lt/kaunas/index.html#stop/702,,
15133,,Bivylių g.,,54.93528,23.81702,https://www.stops.lt/kaunas/index.html#stop/822,,
15134,,Bivylių g.,,54.93527,23.81735,https://www.stops.lt/kaunas/index.html#stop/823,,
15164,,Paltiškių g.,,54.93607,23.82878,https://www.stops.lt/kaunas/index.html#stop/826,,
15165,,Paltiškių g.,,54.93611,23.82935,https://www.stops.lt/kaunas/index.html#stop/827,,
15033,,Sakalų g.,,54.94599,23.76940,https://www.stops.lt/kaunas/index.html#stop/804,,
2978,,Aukščių g.,,54.96591,23.91873,https://www.stops.lt/kaunas/index.html#stop/584,,
2979,,Aukščių g.,,54.96563,23.91797,https://www.stops.lt/kaunas/index.html#stop/583,,
2982,,Domeikava,,54.96650,23.93445,https://www.stops.lt/kaunas/index.html#stop/401,,
2980,,Domeikavos seniūnija,,54.96699,23.92284,https://www.stops.lt/kaunas/index.html#stop/558,,
2981,,Domeikavos seniūnija,,54.96734,23.92432,https://www.stops.lt/kaunas/index.html#stop/402,,
2976,,Pakalnės g.,,54.96122,23.90613,https://www.stops.lt/kaunas/index.html#stop/698,,
2977,,Pakalnės g.,,54.96206,23.90784,https://www.stops.lt/kaunas/index.html#stop/699,,
14681,,E. Ožeškienės g.,,54.89810,23.90267,https://www.stops.lt/kaunas/index.html#stop/1009,,
15545,,Skubios pagalbos centras,,54.92092,23.92029,https://www.stops.lt/kaunas/index.html#stop/854,,
2925,,Girionys,,54.85562,24.04722,https://www.stops.lt/kaunas/index.html#stop/647,,
2926,,Girionys,,54.85615,24.04772,https://www.stops.lt/kaunas/index.html#stop/648,,
15208,,Biurų centras,,54.93987,23.88628,https://www.stops.lt/kaunas/index.html#stop/833,,
14371,,Jiesios pl.,,54.85636,23.94213,https://www.stops.lt/kaunas/index.html#stop/794,,
15473,,Pakalnės g.,,54.87991,23.86892,https://www.stops.lt/kaunas/index.html#stop/849,,
15399,,Suvalkiečių g.,,54.87450,23.87428,https://www.stops.lt/kaunas/index.html#stop/843,,
15400,,Suvalkiečių g.,,54.87398,23.87518,https://www.stops.lt/kaunas/index.html#stop/844,,
5110,,Birštono g.,,54.89448,23.90199,https://www.stops.lt/kaunas/index.html#stop/717,,
2956,,Kėdainių g.,,54.90773,23.87513,https://www.stops.lt/kaunas/index.html#stop/678,,
2983,,Neveronys,,54.92580,24.09194,https://www.stops.lt/kaunas/index.html#stop/392,,
2984,,Neveronys,,54.92687,24.09227,https://www.stops.lt/kaunas/index.html#stop/391,,
2940,,Pervaža,,54.92278,24.09118,https://www.stops.lt/kaunas/index.html#stop/662,,
2941,,Pervaža,,54.92262,24.09066,https://www.stops.lt/kaunas/index.html#stop/663,,
2985,,Keramikų g.,,54.93279,24.09744,https://www.stops.lt/kaunas/index.html#stop/390,,
2986,,Keramikų g.,,54.93208,24.09644,https://www.stops.lt/kaunas/index.html#stop/389,,
15618,,Kleboniškio miško parkas,,54.95020,23.93097,https://www.stops.lt/kaunas/index.html#stop/867,,
14661,,Ledos kapinės,,54.95332,23.82700,https://www.stops.lt/kaunas/index.html#stop/834,,
15129,,Liucijanavos g.,,54.94749,23.82875,https://www.stops.lt/kaunas/index.html#stop/819,,
15177,,Liucijanavos g.,,54.94789,23.82861,https://www.stops.lt/kaunas/index.html#stop/830,,
15167,,Šilagirio g.,,54.94248,23.82890,https://www.stops.lt/kaunas/index.html#stop/828,,
15168,,Šilagirio g.,,54.94166,23.82914,https://www.stops.lt/kaunas/index.html#stop/829,,
15130,,Vijūkų g.,,54.93791,23.83051,https://www.stops.lt/kaunas/index.html#stop/820,,
15131,,Vijūkų g.,,54.93777,23.83061,https://www.stops.lt/kaunas/index.html#stop/821,,
14996,,Kaimelės g.,,54.93951,23.81447,https://www.stops.lt/kaunas/index.html#stop/798,,
14997,,Kaimelės g.,,54.93963,23.81458,https://www.stops.lt/kaunas/index.html#stop/799,,
14993,,M. ir P. Šalčių g.,,54.94350,23.80686,https://www.stops.lt/kaunas/index.html#stop/795,,
14994,,Romainiškių g.,,54.94484,23.81153,https://www.stops.lt/kaunas/index.html#stop/796,,
14995,,Romainiškių g.,,54.94497,23.81167,https://www.stops.lt/kaunas/index.html#stop/797,,
4378,,Geležinkelio stotis,,54.88752,23.93370,https://www.stops.lt/kaunas/index.html#stop/237,,
14638,,Geležinkelio stotis,,54.88729,23.93222,https://www.stops.lt/kaunas/index.html#stop/1006,,
4943,,2-oji Karmėlava,,54.97402,24.07341,https://www.stops.lt/kaunas/index.html#stop/754,,
14322,,2-oji Karmėlava,,54.97472,24.07560,https://www.stops.lt/kaunas/index.html#stop/756,,
5203,,Biruliškės,,54.93907,23.99629,https://www.stops.lt/kaunas/index.html#stop/730,,
5216,,Biruliškės,,54.93900,23.99569,https://www.stops.lt/kaunas/index.html#stop/735,,
5221,,Karmėlava,,54.96864,24.06150,https://www.stops.lt/kaunas/index.html#stop/738,,
5225,,Karmėlava,,54.96951,24.06399,https://www.stops.lt/kaunas/index.html#stop/739,,
5205,,Margava,,54.95506,24.03176,https://www.stops.lt/kaunas/index.html#stop/732,,
5218,,Margava,,54.95413,24.02916,https://www.stops.lt/kaunas/index.html#stop/737,,
5204,,Narėpai,,54.94731,24.01456,https://www.stops.lt/kaunas/index.html#stop/731,,
5217,,Narėpai,,54.94616,24.01147,https://www.stops.lt/kaunas/index.html#stop/736,,
2910,,Neveronių g.,,54.92009,24.07656,https://www.stops.lt/kaunas/index.html#stop/632,,
2987,,Šiltnamiai,,54.93836,24.10546,https://www.stops.lt/kaunas/index.html#stop/388,,
10727,,Akademijos miestelis,,54.89468,23.82297,https://www.stops.lt/kaunas/index.html#stop/749,,
5213,,Kauno oro uostas,,54.96728,24.07238,https://www.stops.lt/kaunas/index.html#stop/734,,
14426,,Oro uosto g.,,54.97129,24.06924,https://www.stops.lt/kaunas/index.html#stop/768,,
14773,,Oro uosto g.,,54.97122,24.06967,https://www.stops.lt/kaunas/index.html#stop/789,,
15082,,Pervaža,,54.90741,24.04267,https://www.stops.lt/kaunas/index.html#stop/809,,
15083,,Pervaža,,54.90800,24.04355,https://www.stops.lt/kaunas/index.html#stop/810,,
15332,,Užupio g.,,54.91177,24.04697,https://www.stops.lt/kaunas/index.html#stop/839,,
15333,,Užupio g.,,54.91165,24.04705,https://www.stops.lt/kaunas/index.html#stop/840,,
15159,,Medekšinės g.,,54.92866,23.81118,https://www.stops.lt/kaunas/index.html#stop/824,,
15160,,Medekšinės g.,,54.92881,23.81095,https://www.stops.lt/kaunas/index.html#stop/825,,
15124,,Paštuvos g.,,54.92972,23.80681,https://www.stops.lt/kaunas/index.html#stop/817,,
15125,,Paštuvos g.,,54.92978,23.80694,https://www.stops.lt/kaunas/index.html#stop/818,,
14553,,Pilėnų g.,,54.89581,23.82439,https://www.stops.lt/kaunas/index.html#stop/779,,
14370,,Jiesios pl.,,54.85549,23.94333,https://www.stops.lt/kaunas/index.html#stop/793,,
15383,,Rambyno g.,,54.88939,23.94401,https://www.stops.lt/kaunas/index.html#stop/841,,
15601,,Rambyno g.,,54.88852,23.94214,https://www.stops.lt/kaunas/index.html#stop/865,,
15628,,Jūros g.,,54.90845,23.86573,https://www.stops.lt/kaunas/index.html#stop/869,,
2995,,Gimnazija,,54.94110,23.77437,https://www.stops.lt/kaunas/index.html#stop/291,,
2996,,Gimnazija,,54.94061,23.77399,https://www.stops.lt/kaunas/index.html#stop/269,,
2898,,Raudondvario medelynas,,54.93398,23.78518,https://www.stops.lt/kaunas/index.html#stop/620,,
2899,,Raudondvario medelynas,,54.93310,23.78553,https://www.stops.lt/kaunas/index.html#stop/621,,
2993,,Raudondvaris,,54.93779,23.77870,https://www.stops.lt/kaunas/index.html#stop/330,,
2994,,Raudondvaris,,54.93718,23.78076,https://www.stops.lt/kaunas/index.html#stop/297,,
2997,,Saulėtekio g.,,54.94415,23.77181,https://www.stops.lt/kaunas/index.html#stop/268,,
2998,,Saulėtekio g.,,54.94449,23.77137,https://www.stops.lt/kaunas/index.html#stop/267,,
2999,,Svarstyklės,,54.94806,23.76236,https://www.stops.lt/kaunas/index.html#stop/266,,
2974,,Rokų seniūnija,,54.82971,23.94763,https://www.stops.lt/kaunas/index.html#stop/696,,
14998,,Bivylių g.,,54.93618,23.81607,https://www.stops.lt/kaunas/index.html#stop/800,,
14999,,Bivylių g.,,54.93612,23.81628,https://www.stops.lt/kaunas/index.html#stop/801,,
15000,,Chodkevičių g.,,54.93109,23.81884,https://www.stops.lt/kaunas/index.html#stop/802,,
15001,,Chodkevičių g.,,54.92981,23.82012,https://www.stops.lt/kaunas/index.html#stop/803,,
2807,,Kauniečių aptarnavimo centras „Mano Kaunas“,,54.92036,23.94890,https://www.stops.lt/kaunas/index.html#stop/526,,
2808,,Kauniečių aptarnavimo centras „Mano Kaunas“,,54.92012,23.94943,https://www.stops.lt/kaunas/index.html#stop/527,,
15307,,Varžupio g.,,54.89238,23.81231,https://www.stops.lt/kaunas/index.html#stop/835,,
15308,,Varžupio g.,,54.89298,23.81461,https://www.stops.lt/kaunas/index.html#stop/836,,
15584,,Seniavos kapinės,,54.85568,23.90741,https://www.stops.lt/kaunas/index.html#stop/861,,
15585,,Seniavos kapinės,,54.85568,23.90720,https://www.stops.lt/kaunas/index.html#stop/862,,
2442,,Kauno šiltadaržiai,,54.88851,23.84870,https://www.stops.lt/kaunas/index.html#stop/122,,
15408,,Kauno šiltadaržiai,,54.88826,23.84853,https://www.stops.lt/kaunas/index.html#stop/848,,
15471,,Pakalnės g.,,54.88059,23.86759,https://www.stops.lt/kaunas/index.html#stop/842,,
15309,,Seniūnija,,54.88765,23.84320,https://www.stops.lt/kaunas/index.html#stop/837,,
15310,,Seniūnija,,54.88792,23.84200,https://www.stops.lt/kaunas/index.html#stop/838,,
15401,,Stirnų g.,,54.88817,23.86130,https://www.stops.lt/kaunas/index.html#stop/845,,
15402,,Stirnų g.,,54.88859,23.86042,https://www.stops.lt/kaunas/index.html#stop/846,,
2931,,Gyvenvietė,,54.87004,24.07967,https://www.stops.lt/kaunas/index.html#stop/653,,
2932,,Gyvenvietė,,54.87025,24.07838,https://www.stops.lt/kaunas/index.html#stop/654,,
2988,,J. Biliūno g.,,54.86452,24.09233,https://www.stops.lt/kaunas/index.html#stop/387,,
2989,,J. Biliūno g.,,54.86404,24.09309,https://www.stops.lt/kaunas/index.html#stop/384,,
2933,,Malūnas,,54.86756,24.08619,https://www.stops.lt/kaunas/index.html#stop/655,,
2934,,Malūnas,,54.86812,24.08539,https://www.stops.lt/kaunas/index.html#stop/656,,
2990,,Seniūnija,,54.86223,24.09682,https://www.stops.lt/kaunas/index.html#stop/379,,
2991,,Seniūnija,,54.86169,24.09761,https://www.stops.lt/kaunas/index.html#stop/353,,
2992,,Šlienava,,54.86081,24.10838,https://www.stops.lt/kaunas/index.html#stop/348,,
2963,,A. Mitkaus pagrindinė mokykla,,54.81570,23.87556,https://www.stops.lt/kaunas/index.html#stop/685,,
2964,,A. Mitkaus pagrindinė mokykla,,54.81578,23.87544,https://www.stops.lt/kaunas/index.html#stop/686,,
2965,,Rinkūnai,,54.81592,23.88428,https://www.stops.lt/kaunas/index.html#stop/687,,
2441,,Universiteto centriniai rūmai,,54.89364,23.83487,https://www.stops.lt/kaunas/index.html#stop/120,,
15562,,"""Urmo"" turgus",,54.91613,23.99816,https://www.stops.lt/kaunas/index.html#stop/855,,
15068,,Būrio g.,,54.85507,23.88063,https://www.stops.lt/kaunas/index.html#stop/806,,
15070,,Technikumo g.,,54.85692,23.86583,https://www.stops.lt/kaunas/index.html#stop/807,,
15098,,Vaitapilės g.,,54.85587,23.87510,https://www.stops.lt/kaunas/index.html#stop/811,,
15190,,Žvalgų g.,,54.85629,23.87085,https://www.stops.lt/kaunas/index.html#stop/831,,
15600,,Tilto g.,,54.86228,23.95816,https://www.stops.lt/kaunas/index.html#stop/864,,
4826,,Seniava,,54.85137,23.90708,https://www.stops.lt/kaunas/index.html#stop/857,,
15576,,Seniava,,54.85146,23.90711,https://www.stops.lt/kaunas/index.html#stop/858,,
15581,,Titnago g.,,54.85020,23.92110,https://www.stops.lt/kaunas/index.html#stop/859,,
15582,,Titnago g.,,54.85011,23.92122,https://www.stops.lt/kaunas/index.html#stop/860,,
2440,,Universiteto  Mechanikos fakultetas,,54.89145,23.83471,https://www.stops.lt/kaunas/index.html#stop/119,,
2438,,Universiteto bendrabučiai,,54.89285,23.82858,https://www.stops.lt/kaunas/index.html#stop/117,,
2439,,Universiteto bendrabučiai,,54.89258,23.82870,https://www.stops.lt/kaunas/index.html#stop/118,,
2638,,Partizanų g.,,54.92558,24.00016,https://www.stops.lt/kaunas/index.html#stop/345,,
15107,,Birutės g.,,54.87060,23.97732,https://www.stops.lt/kaunas/index.html#stop/813,,
2437,,Akademijos miestelis,,54.89495,23.82396,https://www.stops.lt/kaunas/index.html#stop/116,,
5112,,Gervių g.,,54.91578,23.83527,https://www.stops.lt/kaunas/index.html#stop/719,,
2959,,Bažnyčia,,54.82143,23.87317,https://www.stops.lt/kaunas/index.html#stop/681,,
2960,,Bažnyčia,,54.82218,23.87332,https://www.stops.lt/kaunas/index.html#stop/682,,
2961,,Biblioteka,,54.81703,23.87362,https://www.stops.lt/kaunas/index.html#stop/683,,
2962,,Biblioteka,,54.81753,23.87377,https://www.stops.lt/kaunas/index.html#stop/684,,
2952,,Jonučiai,,54.83556,23.87652,https://www.stops.lt/kaunas/index.html#stop/674,,
2953,,Jonučiai,,54.83605,23.87697,https://www.stops.lt/kaunas/index.html#stop/675,,
2950,,Ramybės g.,,54.84128,23.87866,https://www.stops.lt/kaunas/index.html#stop/672,,
2951,,Ramybės g.,,54.84266,23.87947,https://www.stops.lt/kaunas/index.html#stop/673,,
2957,,Tulpių g.,,54.82757,23.87355,https://www.stops.lt/kaunas/index.html#stop/679,,
2958,,Tulpių g.,,54.82810,23.87402,https://www.stops.lt/kaunas/index.html#stop/680,,
2954,,Vienybės g.,,54.83320,23.87587,https://www.stops.lt/kaunas/index.html#stop/676,,
2955,,Vienybės g.,,54.83205,23.87522,https://www.stops.lt/kaunas/index.html#stop/677,,
14637,,Autobusų stotis,,54.88906,23.92724,https://www.stops.lt/kaunas/index.html#stop/1005,,
14636,,Kęstučio g.,,54.89549,23.92514,https://www.stops.lt/kaunas/index.html#stop/1004,,
2937,,Sodininkų bendrija „Kaspinas“,,54.87823,24.07779,https://www.stops.lt/kaunas/index.html#stop/659,,
2938,,Sodininkų bendrija „Kaspinas“,,54.87977,24.07924,https://www.stops.lt/kaunas/index.html#stop/660,,
2935,,Sodininkų bendrija „Šaltinis“,,54.87493,24.07367,https://www.stops.lt/kaunas/index.html#stop/657,,
2936,,Sodininkų bendrija „Šaltinis“,,54.87463,24.07305,https://www.stops.lt/kaunas/index.html#stop/658,,
2939,,Žiegždriai,,54.88564,24.09141,https://www.stops.lt/kaunas/index.html#stop/661,,
15804,,2-ieji Rokai,,54.82512,23.94879,https://www.stops.lt/kaunas/index.html#stop/887,,
15826,,2-ieji Rokai,,54.82605,23.94892,https://www.stops.lt/kaunas/index.html#stop/896,,
16015,,Balio Buračo gimnazija,,54.97144,24.06775,https://www.stops.lt/kaunas/index.html#stop/905,,
16013,,Gėlių g.,,54.89010,23.80539,https://www.stops.lt/kaunas/index.html#stop/903,,
16014,,Gėlių g.,,54.88994,23.80506,https://www.stops.lt/kaunas/index.html#stop/904,,
15813,,Girmuonys,,54.77554,23.95667,https://www.stops.lt/kaunas/index.html#stop/891,,
15816,,Girmuonys,,54.77606,23.95671,https://www.stops.lt/kaunas/index.html#stop/892,,
15806,,Paraželiai,,54.81327,23.95708,https://www.stops.lt/kaunas/index.html#stop/888,,
15824,,Paraželiai,,54.81726,23.95778,https://www.stops.lt/kaunas/index.html#stop/895,,
15877,,Rasos g.,,54.97643,24.07900,https://www.stops.lt/kaunas/index.html#stop/899,,
15808,,Raželiai,,54.80287,23.96000,https://www.stops.lt/kaunas/index.html#stop/889,,
15822,,Raželiai,,54.80751,23.95680,https://www.stops.lt/kaunas/index.html#stop/894,,
16081,,Šiaurės pr.,,54.92969,23.92728,https://www.stops.lt/kaunas/index.html#stop/515a,,
15811,,Vainatrakis,,54.78878,23.96423,https://www.stops.lt/kaunas/index.html#stop/890,,
15820,,Vainatrakis,,54.79221,23.96546,https://www.stops.lt/kaunas/index.html#stop/893,,
16058,,Alyvų g.,,54.85824,23.90981,https://www.stops.lt/kaunas/index.html#stop/907,,
15747,,Lygioji g.,,54.87227,23.89819,https://www.stops.lt/kaunas/index.html#stop/883,,
15748,,Lygioji g.,,54.87264,23.89774,https://www.stops.lt/kaunas/index.html#stop/884,,
15732,,Prezidento V.Adamkaus gimnazija,,54.86625,23.90061,https://www.stops.lt/kaunas/index.html#stop/876,,
16067,,Žiedų g.,,54.86616,23.90047,https://www.stops.lt/kaunas/index.html#stop/876a,,
15855,,Prancūzų g.,,54.89387,23.95573,https://www.stops.lt/kaunas/index.html#stop/414a,,
15701,,Chemijos g.,,54.89997,23.99941,https://www.stops.lt/kaunas/index.html#stop/873,,
15764,,Svirplių takas,,54.89591,24.00584,https://www.stops.lt/kaunas/index.html#stop/885,,
15771,,Svirplių takas,,54.89551,24.00806,https://www.stops.lt/kaunas/index.html#stop/872a,,
15839,,Amalė,,54.91289,24.01823,https://www.stops.lt/kaunas/index.html#stop/897,,
15840,,Amalė,,54.91292,24.01892,https://www.stops.lt/kaunas/index.html#stop/898,,
15741,,Jonučių g.,,54.85833,23.87187,https://www.stops.lt/kaunas/index.html#stop/877,,
15745,,Mokolų g.,,54.86434,23.87181,https://www.stops.lt/kaunas/index.html#stop/881,,
15746,,Mokolų g.,,54.86428,23.87181,https://www.stops.lt/kaunas/index.html#stop/882,,
15975,,Aluonos g.,,54.94577,23.82873,https://www.stops.lt/kaunas/index.html#stop/900,,
15982,,1-ojo forto g.,,54.88431,23.86666,https://www.stops.lt/kaunas/index.html#stop/901,,
15983,,1-ojo forto g.,,54.88424,23.86654,https://www.stops.lt/kaunas/index.html#stop/902,,
16062,,J. Pabrėžos g.,,54.86516,23.91035,https://www.stops.lt/kaunas/index.html#stop/157a,,
15743,,Tirkiliškių g.,,54.86110,23.86957,https://www.stops.lt/kaunas/index.html#stop/879,,
15744,,Tirkiliškių g.,,54.86124,23.86951,https://www.stops.lt/kaunas/index.html#stop/880,,
2662,,Breslaujos g.,,54.89657,23.95646,https://www.stops.lt/kaunas/index.html#stop/371,,
14320,,Breslaujos g.,,54.89694,23.95655,https://www.stops.lt/kaunas/index.html#stop/753,,
2656,,6-asis fortas,,54.90116,23.97222,https://www.stops.lt/kaunas/index.html#stop/365,,
2657,,6-asis fortas,,54.90136,23.97268,https://www.stops.lt/kaunas/index.html#stop/366,,
2660,,Breslaujos g.,,54.89817,23.95763,https://www.stops.lt/kaunas/index.html#stop/369,,
2661,,Breslaujos g.,,54.89786,23.95726,https://www.stops.lt/kaunas/index.html#stop/370,,
2658,,Pašilės g.,,54.90067,23.96670,https://www.stops.lt/kaunas/index.html#stop/367,,
2659,,Pašilės g.,,54.90088,23.96659,https://www.stops.lt/kaunas/index.html#stop/368,,
2688,,Karių kapinės,,54.88025,23.94876,https://www.stops.lt/kaunas/index.html#stop/407,,
2689,,Karių kapinės,,54.87915,23.94895,https://www.stops.lt/kaunas/index.html#stop/408,,
2697,,Alsėdžių g.,,54.89073,23.94780,https://www.stops.lt/kaunas/index.html#stop/416,,
14425,,Alsėdžių g.,,54.89148,23.94973,https://www.stops.lt/kaunas/index.html#stop/767,,
2696,,Ašmenos g.,,54.89025,23.94607,https://www.stops.lt/kaunas/index.html#stop/415,,
2698,,Jašiūnų g.,,54.88735,23.94027,https://www.stops.lt/kaunas/index.html#stop/417,,
2695,,Kaišiadorių g.,,54.89284,23.95365,https://www.stops.lt/kaunas/index.html#stop/414,,
2687,,Respublikinė Kauno ligoninė,,54.87864,23.94550,https://www.stops.lt/kaunas/index.html#stop/406,,
14550,,Ašmenos 1-oji g.,,54.88244,23.94926,https://www.stops.lt/kaunas/index.html#stop/777,,
14551,,Ašmenos 1-oji g.,,54.88268,23.94926,https://www.stops.lt/kaunas/index.html#stop/778,,
2692,,Prancūzų g.,,54.89213,23.95458,https://www.stops.lt/kaunas/index.html#stop/411,,
2693,,Prancūzų g.,,54.89227,23.95444,https://www.stops.lt/kaunas/index.html#stop/412,,
2694,,Verkių g.,,54.89288,23.95409,https://www.stops.lt/kaunas/index.html#stop/413,,
2690,,Žarėnų g.,,54.88643,23.95273,https://www.stops.lt/kaunas/index.html#stop/409,,
2691,,Žarėnų g.,,54.88529,23.95147,https://www.stops.lt/kaunas/index.html#stop/410,,
14919,,Europos pr.,,54.87483,23.89261,https://www.stops.lt/kaunas/index.html#stop/83,,
5099,,Bitininkų g.,,54.87512,23.89411,https://www.stops.lt/kaunas/index.html#stop/706,,
5100,,Bitininkų g.,,54.87518,23.89834,https://www.stops.lt/kaunas/index.html#stop/707,,
2478,,Freda,,54.87516,23.91415,https://www.stops.lt/kaunas/index.html#stop/772,,
14542,,M. K. Čiurlionio tiltas,,54.88033,23.92190,https://www.stops.lt/kaunas/index.html#stop/774,,
14543,,M. K. Čiurlionio tiltas,,54.88046,23.92238,https://www.stops.lt/kaunas/index.html#stop/775,,
14546,,M.K.Čiurlionio tiltas,,54.87982,23.92294,https://www.stops.lt/kaunas/index.html#stop/776,,
4926,,Ž. E. Žilibero g.,,54.87560,23.90230,https://www.stops.lt/kaunas/index.html#stop/233,,
4927,,Ž. E. Žilibero g.,,54.87529,23.90494,https://www.stops.lt/kaunas/index.html#stop/232,,
2948,,K. Dulksnio g.,,54.84722,23.88082,https://www.stops.lt/kaunas/index.html#stop/670,,
2949,,K. Dulksnio g.,,54.84788,23.88134,https://www.stops.lt/kaunas/index.html#stop/671,,
2486,,Aleksoto gelžbetonis,,54.88367,23.91715,https://www.stops.lt/kaunas/index.html#stop/172,,
2487,,Aleksoto gelžbetonis,,54.88390,23.91703,https://www.stops.lt/kaunas/index.html#stop/173,,
2484,,Elevatorius,,54.88557,23.91317,https://www.stops.lt/kaunas/index.html#stop/170,,
2485,,Elevatorius,,54.88589,23.91177,https://www.stops.lt/kaunas/index.html#stop/171,,
2480,,H. ir O. Minkovskių g.,,54.89121,23.89743,https://www.stops.lt/kaunas/index.html#stop/166,,
2481,,H. ir O. Minkovskių g.,,54.89130,23.89683,https://www.stops.lt/kaunas/index.html#stop/167,,
2488,,M. K. Čiurlionio tiltas,,54.88149,23.92264,https://www.stops.lt/kaunas/index.html#stop/174,,
2489,,M. K. Čiurlionio tiltas,,54.88166,23.92161,https://www.stops.lt/kaunas/index.html#stop/175,,
2482,,Malūnas,,54.88908,23.90294,https://www.stops.lt/kaunas/index.html#stop/168,,
2483,,Malūnas,,54.88848,23.90413,https://www.stops.lt/kaunas/index.html#stop/169,,
2436,,Veiverių g.,,54.89265,23.89208,https://www.stops.lt/kaunas/index.html#stop/115,,
5113,,Veiverių g.,,54.89250,23.89232,https://www.stops.lt/kaunas/index.html#stop/720,,
2493,,Freda,,54.87114,23.92503,https://www.stops.lt/kaunas/index.html#stop/179,,
2494,,Freda,,54.87087,23.92488,https://www.stops.lt/kaunas/index.html#stop/180,,
2495,,Geležinkelio pervaža,,54.86390,23.92567,https://www.stops.lt/kaunas/index.html#stop/181,,
2496,,Geležinkelio pervaža,,54.86366,23.92556,https://www.stops.lt/kaunas/index.html#stop/182,,
2499,,Jiesia,,54.85844,23.92915,https://www.stops.lt/kaunas/index.html#stop/189,,
2500,,Jiesia,,54.85870,23.92859,https://www.stops.lt/kaunas/index.html#stop/190,,
2490,,Piliakalnio g.,,54.87439,23.92432,https://www.stops.lt/kaunas/index.html#stop/176,,
2491,,Piliakalnio g.,,54.87535,23.92329,https://www.stops.lt/kaunas/index.html#stop/177,,
2465,,2-asis fortas,,54.85716,23.88514,https://www.stops.lt/kaunas/index.html#stop/147,,
2947,,2-asis fortas,,54.85598,23.88418,https://www.stops.lt/kaunas/index.html#stop/669,,
2450,,Aleksoto poliklinika,,54.88599,23.89561,https://www.stops.lt/kaunas/index.html#stop/131,,
2451,,Aleksoto poliklinika,,54.88512,23.89505,https://www.stops.lt/kaunas/index.html#stop/132,,
2452,,Europos pr.,,54.87558,23.89179,https://www.stops.lt/kaunas/index.html#stop/133,,
2453,,Europos pr.,,54.87439,23.89101,https://www.stops.lt/kaunas/index.html#stop/134,,
2456,,Julijanavos g.,,54.86987,23.88961,https://www.stops.lt/kaunas/index.html#stop/137,,
2457,,Julijanavos g.,,54.86820,23.88869,https://www.stops.lt/kaunas/index.html#stop/138,,
2463,,Lazdijų g.,,54.86373,23.88729,https://www.stops.lt/kaunas/index.html#stop/145,,
2464,,Lazdijų g.,,54.86317,23.88684,https://www.stops.lt/kaunas/index.html#stop/146,,
2454,,S.Dariaus ir S.Girėno aerodromas,,54.87695,23.89200,https://www.stops.lt/kaunas/index.html#stop/135,,
4694,,Sodai,,54.84962,23.88175,https://www.stops.lt/kaunas/index.html#stop/231,,
4695,,Sodai,,54.85023,23.88226,https://www.stops.lt/kaunas/index.html#stop/236,,
2435,,Vytauto Didžiojo tiltas,,54.89275,23.88848,https://www.stops.lt/kaunas/index.html#stop/114,,
6193,,Vytauto Didžiojo tiltas,,54.89248,23.88925,https://www.stops.lt/kaunas/index.html#stop/748,,
2583,,Amaliai,,54.89831,24.01603,https://www.stops.lt/kaunas/index.html#stop/287,,
2584,,Amaliai,,54.89801,24.01518,https://www.stops.lt/kaunas/index.html#stop/288,,
2581,,Sodai,,54.90062,24.01996,https://www.stops.lt/kaunas/index.html#stop/285,,
2582,,Sodai,,54.90030,24.01932,https://www.stops.lt/kaunas/index.html#stop/286,,
2578,,Viržių g.,,54.90244,24.02373,https://www.stops.lt/kaunas/index.html#stop/346,,
2579,,Viržių g.,,54.90239,24.02303,https://www.stops.lt/kaunas/index.html#stop/347,,
2585,,Kauno keliai,,54.89412,24.00804,https://www.stops.lt/kaunas/index.html#stop/289,,
2586,,Kauno keliai,,54.89412,24.00759,https://www.stops.lt/kaunas/index.html#stop/290,,
14582,,Avilių g.,,54.86339,23.89791,https://www.stops.lt/kaunas/index.html#stop/781,,
14423,,Prezidento V. Adamkaus gimnazija,,54.86714,23.90119,https://www.stops.lt/kaunas/index.html#stop/780,,
2479,,Vinčų g.,,54.87427,23.91462,https://www.stops.lt/kaunas/index.html#stop/164,,
14520,,Vinčų g.,,54.87507,23.91227,https://www.stops.lt/kaunas/index.html#stop/163,,
2468,,Gvazdikų g.,,54.85721,23.90560,https://www.stops.lt/kaunas/index.html#stop/152,,
2470,,Lekėčių g.,,54.86202,23.91041,https://www.stops.lt/kaunas/index.html#stop/155,,
2469,,Gvazdikų g.,,54.85687,23.90578,https://www.stops.lt/kaunas/index.html#stop/153,,
5035,,Kiečių g.,,54.86651,23.89102,https://www.stops.lt/kaunas/index.html#stop/700,,
5036,,Kiečių g.,,54.86625,23.89127,https://www.stops.lt/kaunas/index.html#stop/701,,
2466,,Seniavos pl.,,54.86314,23.89707,https://www.stops.lt/kaunas/index.html#stop/150,,
2467,,Seniavos pl.,,54.86261,23.89776,https://www.stops.lt/kaunas/index.html#stop/151,,
2847,,E. Ožeškienės g.,,54.89802,23.90247,https://www.stops.lt/kaunas/index.html#stop/567,,
2852,,Gedimino g.,,54.89874,23.91994,https://www.stops.lt/kaunas/index.html#stop/572,,
2850,,L. Sapiegos g.,,54.89928,23.90705,https://www.stops.lt/kaunas/index.html#stop/570,,
2851,,Studentų skveras,,54.89897,23.91432,https://www.stops.lt/kaunas/index.html#stop/571,,
2855,,Gedimino g.,,54.89538,23.92221,https://www.stops.lt/kaunas/index.html#stop/575,,
2853,,Muzikinis teatras,,54.89603,23.90614,https://www.stops.lt/kaunas/index.html#stop/573,,
2854,,S. Daukanto g.,,54.89577,23.91290,https://www.stops.lt/kaunas/index.html#stop/574,,
2750,,Dainava,,54.91136,23.98010,https://www.stops.lt/kaunas/index.html#stop/469,,
2751,,Dainava,,54.91145,23.97957,https://www.stops.lt/kaunas/index.html#stop/470,,
2752,,Draugystės žiedas,,54.91163,23.97575,https://www.stops.lt/kaunas/index.html#stop/471,,
2732,,Draugystės parkas,,54.91631,23.97347,https://www.stops.lt/kaunas/index.html#stop/451,,
2733,,Draugystės parkas,,54.91586,23.97352,https://www.stops.lt/kaunas/index.html#stop/452,,
2726,,Turgavietė,,54.91973,23.96940,https://www.stops.lt/kaunas/index.html#stop/445,,
2727,,Turgavietė,,54.92102,23.96737,https://www.stops.lt/kaunas/index.html#stop/446,,
2639,,Biruliškės,,54.92990,23.99410,https://www.stops.lt/kaunas/index.html#stop/282,,
2640,,Biruliškės,,54.92988,23.99345,https://www.stops.lt/kaunas/index.html#stop/283,,
2647,,Dvarčionių keramika,,54.92779,23.97697,https://www.stops.lt/kaunas/index.html#stop/356,,
2648,,Dvarčionių keramika,,54.92836,23.97845,https://www.stops.lt/kaunas/index.html#stop/357,,
2641,,Parduotuvė,,54.93054,23.98783,https://www.stops.lt/kaunas/index.html#stop/349,,
2642,,Parduotuvė,,54.93062,23.98657,https://www.stops.lt/kaunas/index.html#stop/350,,
4370,,Partizanų g.,,54.92644,23.99920,https://www.stops.lt/kaunas/index.html#stop/6,,
4371,,Partizanų g.,,54.92596,23.99878,https://www.stops.lt/kaunas/index.html#stop/8,,
4419,,Partizanų g.,,54.92665,23.99888,https://www.stops.lt/kaunas/index.html#stop/186,,
2651,,Kauno kolegija,,54.91956,23.98314,https://www.stops.lt/kaunas/index.html#stop/360,,
2652,,Kauno kolegija,,54.92121,23.98127,https://www.stops.lt/kaunas/index.html#stop/361,,
2649,,Pramonės pr.,,54.92520,23.97629,https://www.stops.lt/kaunas/index.html#stop/358,,
2650,,Pramonės pr.,,54.92406,23.97818,https://www.stops.lt/kaunas/index.html#stop/359,,
2653,,Taikos pr.,,54.91762,23.98379,https://www.stops.lt/kaunas/index.html#stop/362,,
2622,,Urmas,,54.91531,23.98568,https://www.stops.lt/kaunas/index.html#stop/328,,
5049,,Urmas,,54.91479,23.98539,https://www.stops.lt/kaunas/index.html#stop/703,,
2734,,Draugystės žiedas,,54.91375,23.97562,https://www.stops.lt/kaunas/index.html#stop/453,,
2735,,Draugystės žiedas,,54.91393,23.97723,https://www.stops.lt/kaunas/index.html#stop/454,,
2654,,Trys berželiai,,54.91526,23.98004,https://www.stops.lt/kaunas/index.html#stop/363,,
2655,,Trys berželiai,,54.91503,23.98030,https://www.stops.lt/kaunas/index.html#stop/364,,
2738,,Birželio 23-iosios g.,,54.91498,23.95861,https://www.stops.lt/kaunas/index.html#stop/457,,
2739,,Birželio 23-iosios g.,,54.91521,23.95928,https://www.stops.lt/kaunas/index.html#stop/458,,
2736,,Draugystės parkas,,54.91631,23.96553,https://www.stops.lt/kaunas/index.html#stop/455,,
2737,,Draugystės parkas,,54.91655,23.96536,https://www.stops.lt/kaunas/index.html#stop/456,,
2645,,Kauno saulėtekis,,54.92492,23.98378,https://www.stops.lt/kaunas/index.html#stop/354,,
2646,,Kauno saulėtekis,,54.92447,23.98283,https://www.stops.lt/kaunas/index.html#stop/355,,
2729,,Kovo 11-osios g.,,54.91961,23.97202,https://www.stops.lt/kaunas/index.html#stop/448,,
2728,,Rėda,,54.91824,23.96884,https://www.stops.lt/kaunas/index.html#stop/447,,
2643,,Technikos profesinio mokymo centras,,54.92548,23.99320,https://www.stops.lt/kaunas/index.html#stop/351,,
2644,,Technikos profesinio mokymo centras,,54.92536,23.99434,https://www.stops.lt/kaunas/index.html#stop/352,,
2730,,V. Krėvės pr.,,54.92065,23.97464,https://www.stops.lt/kaunas/index.html#stop/449,,
2731,,V. Krėvės pr.,,54.92146,23.97616,https://www.stops.lt/kaunas/index.html#stop/450,,
2796,,Šiaurės pr.,,54.92938,23.92728,https://www.stops.lt/kaunas/index.html#stop/515,,
2786,,Islandijos pl.,,54.93345,23.94402,https://www.stops.lt/kaunas/index.html#stop/505,,
2790,,Čečėnijos aikštė,,54.92576,23.94822,https://www.stops.lt/kaunas/index.html#stop/509,,
2791,,Čečėnijos aikštė,,54.92552,23.94753,https://www.stops.lt/kaunas/index.html#stop/510,,
2703,,Pakraščio g.,,54.92460,23.96200,https://www.stops.lt/kaunas/index.html#stop/422,,
2704,,Pakraščio g.,,54.92482,23.96119,https://www.stops.lt/kaunas/index.html#stop/423,,
2782,,V. Landsbergio-Žemkalnio g.,,54.92626,23.95611,https://www.stops.lt/kaunas/index.html#stop/501,,
2783,,V. Landsbergio-Žemkalnio g.,,54.92642,23.95401,https://www.stops.lt/kaunas/index.html#stop/502,,
2788,,Eiguliai,,54.92830,23.94301,https://www.stops.lt/kaunas/index.html#stop/507,,
2789,,Eiguliai,,54.92761,23.94274,https://www.stops.lt/kaunas/index.html#stop/508,,
2787,,S. Žukausko g.,,54.92996,23.94277,https://www.stops.lt/kaunas/index.html#stop/506,,
2792,,Ašigalio g.,,54.93120,23.93668,https://www.stops.lt/kaunas/index.html#stop/511,,
2793,,Ašigalio g.,,54.93146,23.93710,https://www.stops.lt/kaunas/index.html#stop/512,,
2785,,K. Škirpos g.,,54.93123,23.94527,https://www.stops.lt/kaunas/index.html#stop/504,,
2777,,Martyno Mažvydo pagrindinė mokykla,,54.93087,23.95722,https://www.stops.lt/kaunas/index.html#stop/496,,
2778,,Martyno Mažvydo pagrindinė mokykla,,54.93116,23.95461,https://www.stops.lt/kaunas/index.html#stop/497,,
2784,,P. Plechavičiaus g.,,54.93137,23.94835,https://www.stops.lt/kaunas/index.html#stop/503,,
2879,,P. Plechavičiaus g.,,54.93108,23.94985,https://www.stops.lt/kaunas/index.html#stop/601,,
14424,,S. Žukausko g.,,54.93157,23.94077,https://www.stops.lt/kaunas/index.html#stop/766,,
2775,,Šiaurinė,,54.93065,23.96530,https://www.stops.lt/kaunas/index.html#stop/494,,
2776,,Šiaurinė,,54.93089,23.96380,https://www.stops.lt/kaunas/index.html#stop/495,,
2794,,Ukmergės g.,,54.92990,23.93215,https://www.stops.lt/kaunas/index.html#stop/513,,
2795,,Ukmergės g.,,54.92977,23.93083,https://www.stops.lt/kaunas/index.html#stop/514,,
2801,,Akių klinika,,54.91721,23.92650,https://www.stops.lt/kaunas/index.html#stop/520,,
2802,,Akių klinika,,54.91721,23.92618,https://www.stops.lt/kaunas/index.html#stop/521,,
2797,,Topolis,,54.92536,23.92885,https://www.stops.lt/kaunas/index.html#stop/516,,
2798,,Topolis,,54.92600,23.92874,https://www.stops.lt/kaunas/index.html#stop/517,,
2799,,Žeimenos g.,,54.92242,23.92846,https://www.stops.lt/kaunas/index.html#stop/518,,
2800,,Žeimenos g.,,54.92259,23.92827,https://www.stops.lt/kaunas/index.html#stop/519,,
2779,,Martyno Mažvydo pagrindinė mokykla,,54.92993,23.95542,https://www.stops.lt/kaunas/index.html#stop/498,,
2780,,V. Landsbergio-Žemkalnio g.,,54.92706,23.95530,https://www.stops.lt/kaunas/index.html#stop/499,,
2670,,Kaunakiemio g.,,54.88552,23.92518,https://www.stops.lt/kaunas/index.html#stop/380,,
2668,,Geležinkelio stotis,,54.88735,23.93234,https://www.stops.lt/kaunas/index.html#stop/377,,
2669,,Geležinkelio stotis,,54.88779,23.93303,https://www.stops.lt/kaunas/index.html#stop/378,,
2663,,Dainų slėnis,,54.89388,23.94334,https://www.stops.lt/kaunas/index.html#stop/372,,
2664,,Dainų slėnis,,54.89384,23.94295,https://www.stops.lt/kaunas/index.html#stop/373,,
2665,,Viadukas,,54.89060,23.93899,https://www.stops.lt/kaunas/index.html#stop/374,,
2666,,Viadukas,,54.89072,23.93966,https://www.stops.lt/kaunas/index.html#stop/375,,
2860,,Autobusų stotis,,54.88931,23.92715,https://www.stops.lt/kaunas/index.html#stop/580,,
2861,,Autobusų stotis,,54.88904,23.92727,https://www.stops.lt/kaunas/index.html#stop/581,,
2667,,Geležinkelio stotis,,54.88741,23.93019,https://www.stops.lt/kaunas/index.html#stop/376,,
2862,,Geležinkelio stotis,,54.88796,23.92901,https://www.stops.lt/kaunas/index.html#stop/582,,
2859,,Griunvaldo g.,,54.89145,23.92479,https://www.stops.lt/kaunas/index.html#stop/579,,
14349,,Griunvaldo g.,,54.89218,23.92502,https://www.stops.lt/kaunas/index.html#stop/761,,
2856,,Kęstučio g.,,54.89552,23.92509,https://www.stops.lt/kaunas/index.html#stop/576,,
2858,,Kęstučio g.,,54.89589,23.92523,https://www.stops.lt/kaunas/index.html#stop/578,,
2761,,Studentų g.,,54.90825,23.95394,https://www.stops.lt/kaunas/index.html#stop/480,,
2762,,Studentų g.,,54.90727,23.95230,https://www.stops.lt/kaunas/index.html#stop/481,,
2759,,Taikos pr.,,54.91015,23.95599,https://www.stops.lt/kaunas/index.html#stop/478,,
2760,,Taikos pr.,,54.91016,23.95582,https://www.stops.lt/kaunas/index.html#stop/479,,
2763,,Zoologijos sodas,,54.90505,23.94923,https://www.stops.lt/kaunas/index.html#stop/482,,
2757,,Girstutis,,54.90526,23.97577,https://www.stops.lt/kaunas/index.html#stop/476,,
2755,,Girstutis,,54.90590,23.97391,https://www.stops.lt/kaunas/index.html#stop/474,,
2756,,Girstutis,,54.90466,23.97378,https://www.stops.lt/kaunas/index.html#stop/475,,
2753,,Kovo 11-osios gimnazija,,54.91039,23.97388,https://www.stops.lt/kaunas/index.html#stop/472,,
2754,,Kovo 11-osios gimnazija,,54.90962,23.97369,https://www.stops.lt/kaunas/index.html#stop/473,,
2758,,Vienybės g.,,54.90270,23.97389,https://www.stops.lt/kaunas/index.html#stop/477,,
2744,,„Vyturio“ gimnazija,,54.91200,23.96117,https://www.stops.lt/kaunas/index.html#stop/463,,
2745,,„Vyturio“ gimnazija,,54.91240,23.95895,https://www.stops.lt/kaunas/index.html#stop/464,,
2746,,A. Baranausko g.,,54.91190,23.95232,https://www.stops.lt/kaunas/index.html#stop/465,,
2747,,A. Baranausko g.,,54.91221,23.95246,https://www.stops.lt/kaunas/index.html#stop/466,,
2748,,Gražinos g.,,54.91166,23.94822,https://www.stops.lt/kaunas/index.html#stop/467,,
2749,,J. Basanavičiaus al.,,54.91117,23.94403,https://www.stops.lt/kaunas/index.html#stop/468,,
2742,,Simono Daukanto progimnazija,,54.91161,23.96756,https://www.stops.lt/kaunas/index.html#stop/461,,
2743,,Simono Daukanto progimnazija,,54.91190,23.96667,https://www.stops.lt/kaunas/index.html#stop/462,,
2769,,Gėlių rato g.,,54.90232,23.93977,https://www.stops.lt/kaunas/index.html#stop/488,,
2770,,Gėlių rato g.,,54.90182,23.93754,https://www.stops.lt/kaunas/index.html#stop/489,,
2768,,Minties rato g.,,54.90302,23.94376,https://www.stops.lt/kaunas/index.html#stop/487,,
2764,,Zoologijos sodas,,54.90409,23.94879,https://www.stops.lt/kaunas/index.html#stop/483,,
2501,,Jiesios kraštovaizdžio draustinis,,54.85756,23.92711,https://www.stops.lt/kaunas/index.html#stop/191,,
2502,,Jiesios kraštovaizdžio draustinis,,54.85794,23.92808,https://www.stops.lt/kaunas/index.html#stop/192,,
2497,,Kreidos g.,,54.85137,23.92718,https://www.stops.lt/kaunas/index.html#stop/187,,
5032,,Nuokalnės g.,,54.91260,23.92366,https://www.stops.lt/kaunas/index.html#stop/149,,
5033,,Nuokalnės g.,,54.91285,23.92346,https://www.stops.lt/kaunas/index.html#stop/148,,
2809,,S. Lozoraičio g.,,54.92384,23.94080,https://www.stops.lt/kaunas/index.html#stop/528,,
2810,,S. Lozoraičio g.,,54.92398,23.94053,https://www.stops.lt/kaunas/index.html#stop/529,,
2805,,Sukilėlių pr.,,54.91408,23.92431,https://www.stops.lt/kaunas/index.html#stop/524,,
2817,,Technikos kolegija,,54.91291,23.92916,https://www.stops.lt/kaunas/index.html#stop/536,,
2818,,Technikos kolegija,,54.91314,23.92946,https://www.stops.lt/kaunas/index.html#stop/537,,
2806,,V. Lašo g.,,54.91360,23.92274,https://www.stops.lt/kaunas/index.html#stop/525,,
2902,,V. Lašo g.,,54.91428,23.92138,https://www.stops.lt/kaunas/index.html#stop/624,,
2811,,Kalniečių g.,,54.92307,23.93439,https://www.stops.lt/kaunas/index.html#stop/530,,
2812,,Kalniečių g.,,54.92301,23.93436,https://www.stops.lt/kaunas/index.html#stop/531,,
2882,,7-asis kilometras,,54.92081,23.81043,https://www.stops.lt/kaunas/index.html#stop/604,,
2883,,7-asis kilometras,,54.92089,23.80877,https://www.stops.lt/kaunas/index.html#stop/605,,
2420,,Kaniūkai,,54.91958,23.82899,https://www.stops.lt/kaunas/index.html#stop/99,,
2880,,Kaniūkai,,54.92201,23.79733,https://www.stops.lt/kaunas/index.html#stop/602,,
2881,,Kaniūkai,,54.92244,23.79549,https://www.stops.lt/kaunas/index.html#stop/603,,
14291,,Kaniūkų 1-oji g.,,54.91779,23.83253,https://www.stops.lt/kaunas/index.html#stop/747,,
2886,,Raudondvario pl.,,54.91966,23.82828,https://www.stops.lt/kaunas/index.html#stop/608,,
2887,,Raudondvario pl.,,54.91974,23.82779,https://www.stops.lt/kaunas/index.html#stop/609,,
2884,,Visvaldės g.,,54.92053,23.81826,https://www.stops.lt/kaunas/index.html#stop/606,,
2885,,Visvaldės g.,,54.92067,23.81698,https://www.stops.lt/kaunas/index.html#stop/607,,
2462,,Alšėnų g.,,54.86619,23.87469,https://www.stops.lt/kaunas/index.html#stop/143,,
14586,,Alšėnų g.,,54.86662,23.87483,https://www.stops.lt/kaunas/index.html#stop/782,,
2455,,Valstybinė mokesčių inspekcija,,54.87468,23.88699,https://www.stops.lt/kaunas/index.html#stop/136,,
14605,,Valstybinė mokesčių inspekcija,,54.87466,23.88906,https://www.stops.lt/kaunas/index.html#stop/784,,
2459,,Juodelynės g.,,54.86595,23.86424,https://www.stops.lt/kaunas/index.html#stop/140,,
2460,,Juodelynės g.,,54.86587,23.86437,https://www.stops.lt/kaunas/index.html#stop/141,,
2458,,Kazliškiai,,54.86649,23.85458,https://www.stops.lt/kaunas/index.html#stop/139,,
2461,,Alšėnų g.,,54.86664,23.87458,https://www.stops.lt/kaunas/index.html#stop/142,,
2916,,Kalvarijos g.,,54.87224,23.87779,https://www.stops.lt/kaunas/index.html#stop/638,,
2917,,Kalvarijos g.,,54.87244,23.87771,https://www.stops.lt/kaunas/index.html#stop/639,,
5050,,Pilviškių g.,,54.86422,23.88296,https://www.stops.lt/kaunas/index.html#stop/704,,
2823,,Kempingas,,54.93365,23.91810,https://www.stops.lt/kaunas/index.html#stop/542,,
2824,,Kempingas,,54.93452,23.91822,https://www.stops.lt/kaunas/index.html#stop/543,,
5101,,Šiaurės pr.,,54.93162,23.91699,https://www.stops.lt/kaunas/index.html#stop/708,,
5102,,Šiaurės pr.,,54.93138,23.91715,https://www.stops.lt/kaunas/index.html#stop/709,,
2821,,Vandentiekis,,54.94502,23.92379,https://www.stops.lt/kaunas/index.html#stop/540,,
2822,,Vandentiekis,,54.94478,23.92346,https://www.stops.lt/kaunas/index.html#stop/541,,
14798,,Kleboniškio miško parkas,,54.95031,23.93142,https://www.stops.lt/kaunas/index.html#stop/791,,
2878,,Kleboniškis,,54.95540,23.95076,https://www.stops.lt/kaunas/index.html#stop/600,,
2876,,Palapinių g.,,54.95450,23.94266,https://www.stops.lt/kaunas/index.html#stop/598,,
2877,,Palapinių g.,,54.95445,23.94297,https://www.stops.lt/kaunas/index.html#stop/599,,
2874,,Vasarvietės g.,,54.95183,23.93445,https://www.stops.lt/kaunas/index.html#stop/596,,
2875,,Vasarvietės g.,,54.95186,23.93481,https://www.stops.lt/kaunas/index.html#stop/597,,
2417,,Atrama,,54.91185,23.84437,https://www.stops.lt/kaunas/index.html#stop/96,,
5105,,Lituanica,,54.90926,23.84141,https://www.stops.lt/kaunas/index.html#stop/712,,
5106,,Lituanica,,54.90966,23.84204,https://www.stops.lt/kaunas/index.html#stop/713,,
2892,,Lampėdžiai,,54.91047,23.82141,https://www.stops.lt/kaunas/index.html#stop/614,,
2890,,Vytauto g.,,54.90939,23.82609,https://www.stops.lt/kaunas/index.html#stop/612,,
2891,,Vytauto g.,,54.90888,23.82840,https://www.stops.lt/kaunas/index.html#stop/613,,
2444,,A. Gustaičio g.,,54.89057,23.87750,https://www.stops.lt/kaunas/index.html#stop/125,,
2445,,A. Gustaičio g.,,54.89086,23.87642,https://www.stops.lt/kaunas/index.html#stop/126,,
2446,,Jurgio Dobkevičiaus progimnazija,,54.88914,23.88388,https://www.stops.lt/kaunas/index.html#stop/127,,
2447,,Jurgio Dobkevičiaus progimnazija,,54.88882,23.88533,https://www.stops.lt/kaunas/index.html#stop/128,,
2443,,Meteorų g.,,54.89316,23.87013,https://www.stops.lt/kaunas/index.html#stop/123,,
2448,,S. Dariaus ir S. Girėno g.,,54.88730,23.89377,https://www.stops.lt/kaunas/index.html#stop/129,,
2449,,S. Dariaus ir S. Girėno g.,,54.88735,23.89294,https://www.stops.lt/kaunas/index.html#stop/130,,
2427,,Biblioteka,,54.89819,23.86630,https://www.stops.lt/kaunas/index.html#stop/106,,
2428,,Biblioteka,,54.89792,23.86678,https://www.stops.lt/kaunas/index.html#stop/107,,
2425,,Bublių g.,,54.90053,23.85669,https://www.stops.lt/kaunas/index.html#stop/104,,
2426,,Bublių g.,,54.90034,23.85711,https://www.stops.lt/kaunas/index.html#stop/105,,
2431,,Laiptai,,54.89437,23.87785,https://www.stops.lt/kaunas/index.html#stop/110,,
2432,,Laiptai,,54.89447,23.87803,https://www.stops.lt/kaunas/index.html#stop/111,,
2429,,Marvelė,,54.89674,23.87248,https://www.stops.lt/kaunas/index.html#stop/108,,
2430,,Marvelė,,54.89659,23.87270,https://www.stops.lt/kaunas/index.html#stop/109,,
2423,,Žirgynas,,54.90284,23.84497,https://www.stops.lt/kaunas/index.html#stop/102,,
2424,,Žirgynas,,54.90307,23.84372,https://www.stops.lt/kaunas/index.html#stop/103,,
2434,,Vytauto Didžiojo tiltas,,54.89264,23.88677,https://www.stops.lt/kaunas/index.html#stop/113,,
2699,,Murava,,54.92692,23.96937,https://www.stops.lt/kaunas/index.html#stop/418,,
2700,,Murava,,54.92745,23.97011,https://www.stops.lt/kaunas/index.html#stop/419,,
14290,,Savanorių pr,,54.92927,23.97047,https://www.stops.lt/kaunas/index.html#stop/746,,
14288,,Savanorių pr.,,54.93026,23.96934,https://www.stops.lt/kaunas/index.html#stop/745,,
2547,,Apaščios g.,,54.91879,24.04211,https://www.stops.lt/kaunas/index.html#stop/246,,
2580,,Bruknių takas,,54.90721,24.02308,https://www.stops.lt/kaunas/index.html#stop/284,,
5114,,Bruknių takas,,54.90806,24.02221,https://www.stops.lt/kaunas/index.html#stop/721,,
2574,,Naftos bazė,,54.91008,24.02082,https://www.stops.lt/kaunas/index.html#stop/278,,
2575,,Naftos bazė,,54.90980,24.02077,https://www.stops.lt/kaunas/index.html#stop/279,,
2601,,Apuokų takas,,54.90260,23.98747,https://www.stops.lt/kaunas/index.html#stop/307,,
2602,,Apuokų takas,,54.90252,23.98813,https://www.stops.lt/kaunas/index.html#stop/308,,
2600,,Chemijos g.,,54.89985,23.99938,https://www.stops.lt/kaunas/index.html#stop/306,,
2906,,Medšarkių takas,,54.90156,23.99248,https://www.stops.lt/kaunas/index.html#stop/628,,
2907,,Medšarkių takas,,54.90140,23.99259,https://www.stops.lt/kaunas/index.html#stop/629,,
2603,,Policija,,54.90412,23.98176,https://www.stops.lt/kaunas/index.html#stop/309,,
2604,,Policija,,54.90394,23.98148,https://www.stops.lt/kaunas/index.html#stop/310,,
2607,,Draugystės g.,,54.90535,24.00766,https://www.stops.lt/kaunas/index.html#stop/627,,
2608,,Draugystės g.,,54.90504,24.00719,https://www.stops.lt/kaunas/index.html#stop/314,,
2905,,Draugystės g.,,54.90556,24.00611,https://www.stops.lt/kaunas/index.html#stop/313,,
2609,,Gamyklos,,54.90697,24.00050,https://www.stops.lt/kaunas/index.html#stop/316,,
2610,,Gamyklos,,54.90677,24.00101,https://www.stops.lt/kaunas/index.html#stop/315,,
2611,,Kauno gelžbetonis,,54.90970,23.98852,https://www.stops.lt/kaunas/index.html#stop/317,,
2612,,Kauno gelžbetonis,,54.90941,23.98927,https://www.stops.lt/kaunas/index.html#stop/318,,
2618,,Aksa,,54.91307,24.00604,https://www.stops.lt/kaunas/index.html#stop/324,,
2619,,Aksa,,54.91322,24.00430,https://www.stops.lt/kaunas/index.html#stop/325,,
2620,,Elektrėnų g.,,54.91329,23.99799,https://www.stops.lt/kaunas/index.html#stop/326,,
2621,,Elektrėnų g.,,54.91335,23.99775,https://www.stops.lt/kaunas/index.html#stop/327,,
2616,,Gaisrinė,,54.91297,24.01212,https://www.stops.lt/kaunas/index.html#stop/322,,
2617,,Gaisrinė,,54.91309,24.01065,https://www.stops.lt/kaunas/index.html#stop/323,,
2633,,Garažų g.,,54.92183,23.99871,https://www.stops.lt/kaunas/index.html#stop/340,,
2634,,Garažų g.,,54.92138,23.99850,https://www.stops.lt/kaunas/index.html#stop/341,,
2631,,Degalinė,,54.91835,23.98922,https://www.stops.lt/kaunas/index.html#stop/338,,
2632,,Degalinė,,54.91840,23.98845,https://www.stops.lt/kaunas/index.html#stop/339,,
2624,,Elektrinė,,54.91801,24.01959,https://www.stops.lt/kaunas/index.html#stop/331,,
2625,,Elektrinė,,54.91841,24.01819,https://www.stops.lt/kaunas/index.html#stop/332,,
2628,,Kauno pienas,,54.91856,23.99740,https://www.stops.lt/kaunas/index.html#stop/335,,
2629,,Kauno pienas,,54.91865,23.99325,https://www.stops.lt/kaunas/index.html#stop/336,,
2630,,Kauno pienas,,54.91887,23.99571,https://www.stops.lt/kaunas/index.html#stop/337,,
15632,,Kauno pienas,,54.91865,23.99264,https://www.stops.lt/kaunas/index.html#stop/335a,,
2568,,Kitron,,54.91779,24.03446,https://www.stops.lt/kaunas/index.html#stop/272,,
2569,,Kitron,,54.91807,24.03315,https://www.stops.lt/kaunas/index.html#stop/273,,
2626,,Regitra,,54.91834,24.00789,https://www.stops.lt/kaunas/index.html#stop/334,,
2627,,Regitra,,54.91864,24.00668,https://www.stops.lt/kaunas/index.html#stop/333,,
4753,,Technikos g.,,54.90888,24.00953,https://www.stops.lt/kaunas/index.html#stop/321,,
2636,,Garažai,,54.92491,24.00833,https://www.stops.lt/kaunas/index.html#stop/343,,
2904,,Garažai,,54.92501,24.00754,https://www.stops.lt/kaunas/index.html#stop/626,,
2635,,Kauno termofikacijos elektrinė,,54.92474,24.01573,https://www.stops.lt/kaunas/index.html#stop/342,,
2903,,Naujasodis,,54.92518,24.00033,https://www.stops.lt/kaunas/index.html#stop/625,,
2909,,Kapinės,,54.92420,24.07864,https://www.stops.lt/kaunas/index.html#stop/631,,
2543,,Palemonas,,54.92647,24.06157,https://www.stops.lt/kaunas/index.html#stop/242,,
2908,,Palemonas,,54.92670,24.06122,https://www.stops.lt/kaunas/index.html#stop/630,,
2548,,Apaščios g.,,54.91910,24.04352,https://www.stops.lt/kaunas/index.html#stop/247,,
2549,,Ateities pl.,,54.91882,24.04410,https://www.stops.lt/kaunas/index.html#stop/281,,
2552,,Pyvesos g.,,54.91419,24.05006,https://www.stops.lt/kaunas/index.html#stop/251,,
2551,,Pravienos g.,,54.91726,24.04735,https://www.stops.lt/kaunas/index.html#stop/250,,
2572,,Ateities pl.,,54.90507,24.02911,https://www.stops.lt/kaunas/index.html#stop/276,,
2573,,Ateities pl.,,54.90486,24.02874,https://www.stops.lt/kaunas/index.html#stop/280,,
2545,,Kauno tiltai,,54.92268,24.04812,https://www.stops.lt/kaunas/index.html#stop/244,,
2546,,Kauno tiltai,,54.92245,24.04749,https://www.stops.lt/kaunas/index.html#stop/245,,
2544,,Lytagra,,54.92473,24.05124,https://www.stops.lt/kaunas/index.html#stop/243,,
2570,,Upytės g.,,54.91030,24.03300,https://www.stops.lt/kaunas/index.html#stop/274,,
2571,,Upytės g.,,54.90936,24.03198,https://www.stops.lt/kaunas/index.html#stop/275,,
2554,,Parko g.,,54.91227,24.06143,https://www.stops.lt/kaunas/index.html#stop/255,,
2555,,Parko g.,,54.91181,24.06062,https://www.stops.lt/kaunas/index.html#stop/254,,
2562,,S. Nėries muziejus,,54.91074,24.05862,https://www.stops.lt/kaunas/index.html#stop/262,,
2563,,S. Nėries muziejus,,54.91041,24.05783,https://www.stops.lt/kaunas/index.html#stop/263,,
2564,,Šilėnų g.,,54.90799,24.05325,https://www.stops.lt/kaunas/index.html#stop/264,,
2565,,Šilėnų g.,,54.90747,24.05149,https://www.stops.lt/kaunas/index.html#stop/265,,
2561,,Neveronių g.,,54.91979,24.07665,https://www.stops.lt/kaunas/index.html#stop/261,,
2560,,Kauno tiekimas,,54.92309,24.07302,https://www.stops.lt/kaunas/index.html#stop/260,,
4697,,Kražantės g.,,54.91818,24.05746,https://www.stops.lt/kaunas/index.html#stop/40,,
2576,,Naktigonės  g.,,54.90148,24.02869,https://www.stops.lt/kaunas/index.html#stop/277,,
2577,,Naktigonės  g.,,54.90100,24.02964,https://www.stops.lt/kaunas/index.html#stop/248,,
2553,,Palemono g.,,54.91474,24.05821,https://www.stops.lt/kaunas/index.html#stop/253,,
2566,,Pervaža,,54.90419,24.03954,https://www.stops.lt/kaunas/index.html#stop/270,,
2567,,Pervaža,,54.90461,24.03993,https://www.stops.lt/kaunas/index.html#stop/271,,
2558,,Keramzito g.,,54.91786,24.07367,https://www.stops.lt/kaunas/index.html#stop/258,,
2559,,Keramzito g.,,54.91807,24.07350,https://www.stops.lt/kaunas/index.html#stop/259,,
2556,,Palemono keramika,,54.91500,24.06447,https://www.stops.lt/kaunas/index.html#stop/256,,
2557,,Palemono keramika,,54.91426,24.06463,https://www.stops.lt/kaunas/index.html#stop/257,,
4747,,Palemono keramika,,54.91424,24.06496,https://www.stops.lt/kaunas/index.html#stop/19,,
2550,,Pravienos g.,,54.91795,24.04676,https://www.stops.lt/kaunas/index.html#stop/249,,
2517,,A. Smetonos al.,,54.86939,23.96246,https://www.stops.lt/kaunas/index.html#stop/207,,
2518,,A. Smetonos al.,,54.86885,23.96186,https://www.stops.lt/kaunas/index.html#stop/208,,
2513,,Mažoji g.,,54.86511,23.95846,https://www.stops.lt/kaunas/index.html#stop/203,,
2514,,Mažoji g.,,54.86549,23.95796,https://www.stops.lt/kaunas/index.html#stop/204,,
2525,,Vaidoto g.,,54.87152,23.97741,https://www.stops.lt/kaunas/index.html#stop/215,,
2519,,Gailutės g.,,54.87237,23.96527,https://www.stops.lt/kaunas/index.html#stop/209,,
2520,,Gailutės g.,,54.87225,23.96555,https://www.stops.lt/kaunas/index.html#stop/210,,
2523,,J. Staugaičio g.,,54.87168,23.97238,https://www.stops.lt/kaunas/index.html#stop/213,,
2524,,J. Staugaičio g.,,54.87158,23.97258,https://www.stops.lt/kaunas/index.html#stop/214,,
2527,,Kurtinių g.,,54.86462,23.97660,https://www.stops.lt/kaunas/index.html#stop/218,,
2528,,Kurtinių g.,,54.86457,23.97677,https://www.stops.lt/kaunas/index.html#stop/219,,
2512,,Tilto g.,,54.86245,23.95861,https://www.stops.lt/kaunas/index.html#stop/202,,
4367,,Birutės g.,,54.87128,23.97740,https://www.stops.lt/kaunas/index.html#stop/37,,
2504,,Jiesios pl.,,54.85630,23.94429,https://www.stops.lt/kaunas/index.html#stop/194,,
2505,,Karinis dalinys,,54.85840,23.95019,https://www.stops.lt/kaunas/index.html#stop/195,,
2506,,Karinis dalinys,,54.85823,23.94944,https://www.stops.lt/kaunas/index.html#stop/196,,
2942,,Panemunė,,54.86157,23.95789,https://www.stops.lt/kaunas/index.html#stop/664,,
2515,,Smėlio g.,,54.86541,23.96744,https://www.stops.lt/kaunas/index.html#stop/205,,
2516,,Smėlio g.,,54.86437,23.96527,https://www.stops.lt/kaunas/index.html#stop/206,,
2521,,Šv. Mato gimnazija,,54.86799,23.97227,https://www.stops.lt/kaunas/index.html#stop/211,,
2522,,Šv. Mato gimnazija,,54.86734,23.97068,https://www.stops.lt/kaunas/index.html#stop/212,,
2511,,Tilto g.,,54.86238,23.96084,https://www.stops.lt/kaunas/index.html#stop/201,,
2529,,Onkologijos ligoninė,,54.86078,23.97481,https://www.stops.lt/kaunas/index.html#stop/220,,
14922,,Volungių g.,,54.86221,23.97737,https://www.stops.lt/kaunas/index.html#stop/694,,
14923,,Volungių g.,,54.86152,23.97751,https://www.stops.lt/kaunas/index.html#stop/695,,
2352,,Kuršėnų g.,,54.92216,23.90046,https://www.stops.lt/kaunas/index.html#stop/29,,
2353,,Kuršėnų g.,,54.92321,23.90164,https://www.stops.lt/kaunas/index.html#stop/28,,
2344,,Pikulo g.,,54.92891,23.90698,https://www.stops.lt/kaunas/index.html#stop/21,,
2345,,Pikulo g.,,54.92909,23.90728,https://www.stops.lt/kaunas/index.html#stop/20,,
2334,,Šiaurinio aplinkkelio tiltas,,54.93600,23.91063,https://www.stops.lt/kaunas/index.html#stop/7,,
5236,,Šiaurinio aplinkkelio tiltas,,54.93616,23.91096,https://www.stops.lt/kaunas/index.html#stop/752,,
2346,,Skaudvilės g.,,54.92701,23.90544,https://www.stops.lt/kaunas/index.html#stop/22,,
2347,,Skaudvilės g.,,54.92636,23.90460,https://www.stops.lt/kaunas/index.html#stop/23,,
2594,,Kausta,,54.89226,24.00110,https://www.stops.lt/kaunas/index.html#stop/300,,
2595,,Kausta,,54.89268,23.99951,https://www.stops.lt/kaunas/index.html#stop/301,,
2596,,Ketaus liejykla,,54.89461,23.98839,https://www.stops.lt/kaunas/index.html#stop/302,,
2597,,Ketaus liejykla,,54.89463,23.98748,https://www.stops.lt/kaunas/index.html#stop/303,,
2598,,Petrašiūnų mokymo centras,,54.89562,23.98199,https://www.stops.lt/kaunas/index.html#stop/304,,
2599,,Petrašiūnų mokymo centras,,54.89614,23.98114,https://www.stops.lt/kaunas/index.html#stop/305,,
2592,,Armatūrininkų g.,,54.88972,24.00446,https://www.stops.lt/kaunas/index.html#stop/298,,
2593,,Armatūrininkų g.,,54.88985,24.00468,https://www.stops.lt/kaunas/index.html#stop/299,,
5103,,Elektros tinklai,,54.88669,24.00637,https://www.stops.lt/kaunas/index.html#stop/710,,
5104,,Elektros tinklai,,54.88599,24.00659,https://www.stops.lt/kaunas/index.html#stop/711,,
2587,,Kauno marios,,54.87869,24.01348,https://www.stops.lt/kaunas/index.html#stop/292,,
2590,,Petrašiūnai,,54.88534,24.00748,https://www.stops.lt/kaunas/index.html#stop/295,,
2591,,Petrašiūnai,,54.88430,24.00743,https://www.stops.lt/kaunas/index.html#stop/296,,
2943,,Bernardinų Plytinės g.,,54.84441,23.94938,https://www.stops.lt/kaunas/index.html#stop/665,,
2944,,Bernardinų Plytinės g.,,54.84431,23.94929,https://www.stops.lt/kaunas/index.html#stop/666,,
2945,,Naujoji g.,,54.84299,23.94145,https://www.stops.lt/kaunas/index.html#stop/667,,
2946,,Naujoji g.,,54.84262,23.94134,https://www.stops.lt/kaunas/index.html#stop/668,,
2507,,4-asis fortas,,54.85315,23.95499,https://www.stops.lt/kaunas/index.html#stop/197,,
2508,,4-asis fortas,,54.85318,23.95482,https://www.stops.lt/kaunas/index.html#stop/198,,
2509,,Draustinis,,54.84977,23.94865,https://www.stops.lt/kaunas/index.html#stop/199,,
2510,,Draustinis,,54.84946,23.94857,https://www.stops.lt/kaunas/index.html#stop/200,,
5229,,Lazdynų g.,,54.83378,23.94680,https://www.stops.lt/kaunas/index.html#stop/743,,
5230,,Lazdynų g.,,54.83357,23.94672,https://www.stops.lt/kaunas/index.html#stop/744,,
2970,,Rokai,,54.83705,23.94795,https://www.stops.lt/kaunas/index.html#stop/692,,
2971,,Rokai,,54.83707,23.94816,https://www.stops.lt/kaunas/index.html#stop/693,,
2968,,Rokakiemio g.,,54.84009,23.94721,https://www.stops.lt/kaunas/index.html#stop/690,,
2969,,Rokakiemio g.,,54.84017,23.94715,https://www.stops.lt/kaunas/index.html#stop/691,,
2897,,Medekšinės g.,,54.92802,23.80953,https://www.stops.lt/kaunas/index.html#stop/619,,
2895,,Romainiai,,54.93031,23.81759,https://www.stops.lt/kaunas/index.html#stop/617,,
2896,,Romainiai,,54.93045,23.81853,https://www.stops.lt/kaunas/index.html#stop/618,,
2893,,Kauno miškų urėdija,,54.92632,23.82527,https://www.stops.lt/kaunas/index.html#stop/615,,
2894,,Kauno miškų urėdija,,54.92608,23.82535,https://www.stops.lt/kaunas/index.html#stop/616,,
2378,,Romainių tuberkuliozės ligoninė,,54.92481,23.83216,https://www.stops.lt/kaunas/index.html#stop/56,,
2373,,Romainių 1-osios kapinės,,54.92417,23.85514,https://www.stops.lt/kaunas/index.html#stop/52,,
2374,,Romainių 1-osios kapinės,,54.92422,23.85451,https://www.stops.lt/kaunas/index.html#stop/51,,
2375,,Romainių 2-osios kapinės,,54.92134,23.84769,https://www.stops.lt/kaunas/index.html#stop/53,,
2376,,Romainių 2-osios kapinės,,54.92169,23.84747,https://www.stops.lt/kaunas/index.html#stop/54,,
2889,,Romainių tuberkuliozės ligoninė,,54.92487,23.83141,https://www.stops.lt/kaunas/index.html#stop/611,,
2377,,Ugnės g.,,54.92217,23.84031,https://www.stops.lt/kaunas/index.html#stop/55,,
2888,,Ugnės g.,,54.92246,23.83950,https://www.stops.lt/kaunas/index.html#stop/610,,
15659,,Lubinų g.,,54.94276,23.81363,https://www.stops.lt/kaunas/index.html#stop/870,,
15660,,Lubinų g.,,54.94227,23.81335,https://www.stops.lt/kaunas/index.html#stop/871,,
14498,,Panerys,,54.95086,23.91561,https://www.stops.lt/kaunas/index.html#stop/769,,
14500,,Panerys,,54.94984,23.91460,https://www.stops.lt/kaunas/index.html#stop/771,,
14416,,Saliai,,54.95540,23.91955,https://www.stops.lt/kaunas/index.html#stop/770,,
2421,,9-ojo forto muziejus,,54.94557,23.88239,https://www.stops.lt/kaunas/index.html#stop/100,,
2422,,9-ojo forto muziejus,,54.94595,23.88325,https://www.stops.lt/kaunas/index.html#stop/101,,
4725,,Muitinės g.,,54.95675,23.90050,https://www.stops.lt/kaunas/index.html#stop/239,,
4726,,Muitinės g.,,54.95744,23.90151,https://www.stops.lt/kaunas/index.html#stop/238,,
14595,,Radviliškio g.,,54.94426,23.88051,https://www.stops.lt/kaunas/index.html#stop/783,,
2871,,Sargėnai,,54.95356,23.89610,https://www.stops.lt/kaunas/index.html#stop/593,,
2872,,Sargėnai,,54.95428,23.89771,https://www.stops.lt/kaunas/index.html#stop/594,,
2869,,Šv. Kazimiero progimnazija,,54.95041,23.89037,https://www.stops.lt/kaunas/index.html#stop/591,,
2870,,Šv. Kazimiero progimnazija,,54.95128,23.89140,https://www.stops.lt/kaunas/index.html#stop/592,,
2867,,Vytėnų g.,,54.94789,23.88608,https://www.stops.lt/kaunas/index.html#stop/589,,
2868,,Vytėnų g.,,54.94832,23.88700,https://www.stops.lt/kaunas/index.html#stop/590,,
2843,,Vilniaus g.,,54.89602,23.89619,https://www.stops.lt/kaunas/index.html#stop/563,,
2844,,Vilniaus g.,,54.89626,23.89603,https://www.stops.lt/kaunas/index.html#stop/564,,
2839,,Kauno pilis,,54.89986,23.89030,https://www.stops.lt/kaunas/index.html#stop/559,,
2842,,Karaliaus Mindaugo pr.,,54.89490,23.88848,https://www.stops.lt/kaunas/index.html#stop/562,,
2845,,Karaliaus Mindaugo pr.,,54.89498,23.89188,https://www.stops.lt/kaunas/index.html#stop/565,,
2846,,Vilniaus g.,,54.89637,23.89767,https://www.stops.lt/kaunas/index.html#stop/566,,
2840,,Kauno pilis,,54.90052,23.89308,https://www.stops.lt/kaunas/index.html#stop/560,,
2841,,Kauno pilis,,54.90092,23.89217,https://www.stops.lt/kaunas/index.html#stop/561,,
2849,,Laisvės alėja,,54.89801,23.89975,https://www.stops.lt/kaunas/index.html#stop/569,,
2363,,Apuolės g.,,54.91928,23.87741,https://www.stops.lt/kaunas/index.html#stop/41,,
2364,,Apuolės g.,,54.91947,23.87815,https://www.stops.lt/kaunas/index.html#stop/42,,
2356,,Baltijos g.,,54.92341,23.88807,https://www.stops.lt/kaunas/index.html#stop/32,,
2357,,Baltijos g.,,54.92265,23.88561,https://www.stops.lt/kaunas/index.html#stop/33,,
2365,,Naujakurių g.,,54.91585,23.86711,https://www.stops.lt/kaunas/index.html#stop/45,,
2366,,Naujakurių g.,,54.91582,23.86853,https://www.stops.lt/kaunas/index.html#stop/46,,
2348,,A. Strazdo g.,,54.92562,23.90548,https://www.stops.lt/kaunas/index.html#stop/24,,
2349,,A. Strazdo g.,,54.92535,23.90525,https://www.stops.lt/kaunas/index.html#stop/25,,
2358,,Baltų pr.,,54.92767,23.87992,https://www.stops.lt/kaunas/index.html#stop/34,,
2359,,Baltų pr.,,54.92743,23.87836,https://www.stops.lt/kaunas/index.html#stop/35,,
2339,,Juozo Grušo meno gimnazija,,54.93091,23.89211,https://www.stops.lt/kaunas/index.html#stop/15,,
2340,,Juozo Grušo meno gimnazija,,54.93065,23.89183,https://www.stops.lt/kaunas/index.html#stop/16,,
2371,,Labūnavos g.,,54.91965,23.86587,https://www.stops.lt/kaunas/index.html#stop/49,,
2900,,Labūnavos g.,,54.91870,23.86509,https://www.stops.lt/kaunas/index.html#stop/622,,
5226,,Prūsų g.,,54.92138,23.86737,https://www.stops.lt/kaunas/index.html#stop/740,,
2361,,Šilainių pl.,,54.92472,23.87364,https://www.stops.lt/kaunas/index.html#stop/38,,
2362,,Šilainių pl.,,54.92401,23.87175,https://www.stops.lt/kaunas/index.html#stop/39,,
5227,,Žemaičių pl,,54.92982,23.88475,https://www.stops.lt/kaunas/index.html#stop/741,,
5228,,Žemaičių pl.,,54.92943,23.88464,https://www.stops.lt/kaunas/index.html#stop/742,,
5233,,Mega,,54.93833,23.89202,https://www.stops.lt/kaunas/index.html#stop/750,,
5234,,Mega,,54.93851,23.89067,https://www.stops.lt/kaunas/index.html#stop/751,,
2372,,Kauno klinikinė ligoninė,,54.91493,23.86083,https://www.stops.lt/kaunas/index.html#stop/50,,
2341,,Jotvingių g.,,54.93099,23.89680,https://www.stops.lt/kaunas/index.html#stop/17,,
2337,,Šarkuvos g.,,54.93453,23.89796,https://www.stops.lt/kaunas/index.html#stop/12,,
2338,,Šarkuvos g.,,54.93450,23.89768,https://www.stops.lt/kaunas/index.html#stop/14,,
14403,,9-ojo Forto g.,,54.93590,23.88708,https://www.stops.lt/kaunas/index.html#stop/762,,
14404,,9-ojo Forto g.,,54.93593,23.88632,https://www.stops.lt/kaunas/index.html#stop/763,,
2335,,Kuršių g.,,54.93613,23.89230,https://www.stops.lt/kaunas/index.html#stop/11,,
2336,,Kuršių g.,,54.93600,23.89290,https://www.stops.lt/kaunas/index.html#stop/10,,
2873,,Kuršių g.,,54.93400,23.90463,https://www.stops.lt/kaunas/index.html#stop/595,,
2350,,Kuršėnų g.,,54.92043,23.90844,https://www.stops.lt/kaunas/index.html#stop/26,,
2351,,Kuršėnų g.,,54.92008,23.90805,https://www.stops.lt/kaunas/index.html#stop/27,,
2389,,Varnių tiltas,,54.91541,23.90789,https://www.stops.lt/kaunas/index.html#stop/68,,
2390,,Varnių tiltas,,54.91584,23.90759,https://www.stops.lt/kaunas/index.html#stop/67,,
4261,,Prūsų g.,,54.92052,23.87239,https://www.stops.lt/kaunas/index.html#stop/144,,
14530,,Prūsų g.,,54.92107,23.87123,https://www.stops.lt/kaunas/index.html#stop/773,,
2342,,Jotvingių g.,,54.93028,23.89539,https://www.stops.lt/kaunas/index.html#stop/18,,
5254,,Senukai,,54.93804,23.89647,https://www.stops.lt/kaunas/index.html#stop/755,,
2354,,Milikoniai,,54.92401,23.89247,https://www.stops.lt/kaunas/index.html#stop/31,,
2355,,Milikoniai,,54.92320,23.89333,https://www.stops.lt/kaunas/index.html#stop/30,,
2331,,Mosėdžio g.,,54.93313,23.88556,https://www.stops.lt/kaunas/index.html#stop/3,,
2332,,Mosėdžio g.,,54.93306,23.88497,https://www.stops.lt/kaunas/index.html#stop/4,,
2329,,Šilainių poliklinika,,54.92835,23.88931,https://www.stops.lt/kaunas/index.html#stop/1,,
2330,,Šilainių poliklinika,,54.92806,23.88883,https://www.stops.lt/kaunas/index.html#stop/2,,
2360,,Žiemgalių g.,,54.92391,23.87947,https://www.stops.lt/kaunas/index.html#stop/36,,
5051,,Žiemgalių g.,,54.92355,23.87966,https://www.stops.lt/kaunas/index.html#stop/705,,
2921,,Didžioji g,,54.86091,24.00693,https://www.stops.lt/kaunas/index.html#stop/643,,
2922,,Didžioji g.,,54.86102,24.00668,https://www.stops.lt/kaunas/index.html#stop/644,,
14399,,Garšvės g.,,54.85507,24.01388,https://www.stops.lt/kaunas/index.html#stop/757,,
14400,,Garšvės g.,,54.85469,24.01416,https://www.stops.lt/kaunas/index.html#stop/758,,
14401,,Užvingių g.,,54.84995,24.03027,https://www.stops.lt/kaunas/index.html#stop/759,,
14402,,Užvingių g.,,54.84965,24.03096,https://www.stops.lt/kaunas/index.html#stop/760,,
4957,,Piliuonos g.,,54.85243,24.02040,https://www.stops.lt/kaunas/index.html#stop/230,,
4958,,Piliuonos g.,,54.85326,24.01783,https://www.stops.lt/kaunas/index.html#stop/217,,
2923,,Vaišvydava,,54.85078,24.02689,https://www.stops.lt/kaunas/index.html#stop/645,,
2924,,Vaišvydava,,54.85133,24.02534,https://www.stops.lt/kaunas/index.html#stop/646,,
2541,,Rūko g.,,54.86391,24.00032,https://www.stops.lt/kaunas/index.html#stop/240,,
2542,,Rūko g.,,54.86366,24.00039,https://www.stops.lt/kaunas/index.html#stop/241,,
2539,,Lentpjūvė,,54.86502,23.99126,https://www.stops.lt/kaunas/index.html#stop/234,,
2540,,Lentpjūvė,,54.86527,23.99084,https://www.stops.lt/kaunas/index.html#stop/235,,
2530,,Vaišvydavos pl.,,54.86701,23.98391,https://www.stops.lt/kaunas/index.html#stop/221,,
2531,,Vaišvydavos pl.,,54.86715,23.98375,https://www.stops.lt/kaunas/index.html#stop/222,,
2534,,Baterijos pl.,,54.87633,23.97956,https://www.stops.lt/kaunas/index.html#stop/225,,
2535,,Baterijos pl.,,54.87765,23.98044,https://www.stops.lt/kaunas/index.html#stop/226,,
2526,,Vaidoto g.,,54.87188,23.97733,https://www.stops.lt/kaunas/index.html#stop/216,,
2532,,Vaikų sanatorija,,54.88032,23.98191,https://www.stops.lt/kaunas/index.html#stop/223,,
2533,,Vaikų sanatorija,,54.88040,23.98228,https://www.stops.lt/kaunas/index.html#stop/224,,
2538,,Vičiūnai,,54.88812,23.97648,https://www.stops.lt/kaunas/index.html#stop/229,,
4423,,Slaugos ligoninė,,54.87320,23.98710,https://www.stops.lt/kaunas/index.html#stop/178,,
2536,,K. Griniaus ligoninė,,54.88370,23.98217,https://www.stops.lt/kaunas/index.html#stop/227,,
2537,,K. Griniaus ligoninė,,54.88358,23.98206,https://www.stops.lt/kaunas/index.html#stop/228,,
2399,,Ariogalos g.,,54.90562,23.88904,https://www.stops.lt/kaunas/index.html#stop/77,,
2379,,Lietuvos tekstilės institutas,,54.91726,23.90599,https://www.stops.lt/kaunas/index.html#stop/57,,
2380,,Lietuvos tekstilės institutas,,54.91732,23.90543,https://www.stops.lt/kaunas/index.html#stop/58,,
2367,,Naujakurių g.,,54.91456,23.86684,https://www.stops.lt/kaunas/index.html#stop/43,,
2368,,Naujakurių g.,,54.91473,23.86737,https://www.stops.lt/kaunas/index.html#stop/44,,
2401,,Jurbarko g.,,54.90475,23.88664,https://www.stops.lt/kaunas/index.html#stop/79,,
2402,,Jurbarko g.,,54.90507,23.88527,https://www.stops.lt/kaunas/index.html#stop/80,,
2369,,Josvainių g.,,54.91498,23.87526,https://www.stops.lt/kaunas/index.html#stop/47,,
2370,,Josvainių g.,,54.91485,23.87518,https://www.stops.lt/kaunas/index.html#stop/48,,
2405,,Tilžės  g.,,54.91023,23.87582,https://www.stops.lt/kaunas/index.html#stop/84,,
2406,,Tilžės g.,,54.91005,23.87552,https://www.stops.lt/kaunas/index.html#stop/85,,
2387,,Linkuvos g.,,54.91476,23.88816,https://www.stops.lt/kaunas/index.html#stop/71,,
2395,,Sąjungos aikštė,,54.91126,23.88891,https://www.stops.lt/kaunas/index.html#stop/73,,
2400,,A. Kriščiukaičio g.,,54.90512,23.88933,https://www.stops.lt/kaunas/index.html#stop/78,,
5030,,A. Kriščiukaičio g.,,54.90573,23.89002,https://www.stops.lt/kaunas/index.html#stop/165,,
2391,,Bijūnų g.,,54.91221,23.90593,https://www.stops.lt/kaunas/index.html#stop/69,,
5027,,Bijūnų g.,,54.91187,23.90406,https://www.stops.lt/kaunas/index.html#stop/185,,
2394,,K. Griniaus g.,,54.91122,23.89848,https://www.stops.lt/kaunas/index.html#stop/72,,
5028,,K. Griniaus g.,,54.91096,23.89720,https://www.stops.lt/kaunas/index.html#stop/184,,
2397,,Neries krantinė,,54.90883,23.89380,https://www.stops.lt/kaunas/index.html#stop/75,,
5029,,Neries krantinė,,54.90849,23.89324,https://www.stops.lt/kaunas/index.html#stop/183,,
2831,,Jonavos g.,,54.91434,23.91346,https://www.stops.lt/kaunas/index.html#stop/550,,
2832,,Jonavos g.,,54.91415,23.91352,https://www.stops.lt/kaunas/index.html#stop/551,,
2382,,Demokratų g.,,54.91877,23.89738,https://www.stops.lt/kaunas/index.html#stop/60,,
2383,,Demokratų g.,,54.91879,23.89717,https://www.stops.lt/kaunas/index.html#stop/61,,
2396,,M. Mažvydo g.,,54.91077,23.88737,https://www.stops.lt/kaunas/index.html#stop/74,,
2398,,Radvilų dvaro g.,,54.90704,23.88359,https://www.stops.lt/kaunas/index.html#stop/76,,
2384,,Švyturio g.,,54.91548,23.89310,https://www.stops.lt/kaunas/index.html#stop/62,,
2415,,Atrama,,54.91202,23.84526,https://www.stops.lt/kaunas/index.html#stop/94,,
2416,,Atrama,,54.91292,23.84337,https://www.stops.lt/kaunas/index.html#stop/95,,
2418,,Gervių g.,,54.91585,23.83686,https://www.stops.lt/kaunas/index.html#stop/97,,
2419,,Gervių g.,,54.91562,23.83669,https://www.stops.lt/kaunas/index.html#stop/98,,
2411,,Inkaro g.,,54.90944,23.85793,https://www.stops.lt/kaunas/index.html#stop/90,,
2412,,Inkaro g.,,54.90994,23.85526,https://www.stops.lt/kaunas/index.html#stop/91,,
2407,,Kauno autobusai,,54.90775,23.87097,https://www.stops.lt/kaunas/index.html#stop/86,,
2408,,Kauno autobusai,,54.90801,23.86831,https://www.stops.lt/kaunas/index.html#stop/87,,
2403,,Kėdainių g.,,54.90663,23.87837,https://www.stops.lt/kaunas/index.html#stop/81,,
2404,,Kėdainių g.,,54.90671,23.87700,https://www.stops.lt/kaunas/index.html#stop/82,,
2413,,Vyžuonos g.,,54.91080,23.85048,https://www.stops.lt/kaunas/index.html#stop/92,,
2414,,Vyžuonos g.,,54.91047,23.85132,https://www.stops.lt/kaunas/index.html#stop/93,,
2410,,Žagarės g.,,54.90908,23.86130,https://www.stops.lt/kaunas/index.html#stop/89,,
2901,,Žagarės g.,,54.90899,23.86102,https://www.stops.lt/kaunas/index.html#stop/623,,
2385,,Panerių g.,,54.91517,23.89170,https://www.stops.lt/kaunas/index.html#stop/63,,
2388,,Panerių g.,,54.91490,23.89415,https://www.stops.lt/kaunas/index.html#stop/66,,
2386,,Varnių g.,,54.91517,23.89012,https://www.stops.lt/kaunas/index.html#stop/64,,
5031,,Varnių g.,,54.91504,23.89131,https://www.stops.lt/kaunas/index.html#stop/154,,
2392,,Vilijampolės turgavietė,,54.91446,23.90380,https://www.stops.lt/kaunas/index.html#stop/70,,
2393,,Vilijampolės turgavietė,,54.91479,23.90157,https://www.stops.lt/kaunas/index.html#stop/65,,
2865,,Salantų g.,,54.94532,23.88913,https://www.stops.lt/kaunas/index.html#stop/587,,
2866,,Salantų g.,,54.94532,23.88955,https://www.stops.lt/kaunas/index.html#stop/588,,
2863,,Smiltynės g.,,54.94315,23.89793,https://www.stops.lt/kaunas/index.html#stop/585,,
2864,,Smiltynės g.,,54.94261,23.89950,https://www.stops.lt/kaunas/index.html#stop/586,,
2333,,Vytėnai,,54.94090,23.90679,https://www.stops.lt/kaunas/index.html#stop/5,,
2672,,Geležinkelio g.,,54.87776,23.93427,https://www.stops.lt/kaunas/index.html#stop/382,,
2673,,Geležinkelio g.,,54.87815,23.93374,https://www.stops.lt/kaunas/index.html#stop/383,,
2671,,Geležinkelio tiltas,,54.88193,23.92805,https://www.stops.lt/kaunas/index.html#stop/381,,
2918,,Geležinkelio tiltas,,54.88259,23.92660,https://www.stops.lt/kaunas/index.html#stop/640,,
2678,,Gudų g.,,54.86746,23.94549,https://www.stops.lt/kaunas/index.html#stop/395,,
2679,,Gudų g.,,54.86742,23.94521,https://www.stops.lt/kaunas/index.html#stop/396,,
2680,,Šančių kapinės,,54.86500,23.94989,https://www.stops.lt/kaunas/index.html#stop/397,,
2681,,Šančių kapinės,,54.86437,23.95045,https://www.stops.lt/kaunas/index.html#stop/398,,
2674,,Šančių poliklinika,,54.87378,23.93596,https://www.stops.lt/kaunas/index.html#stop/385,,
4692,,Šančių poliklinika,,54.87281,23.93568,https://www.stops.lt/kaunas/index.html#stop/386,,
2676,,Švč. Jėzaus Širdies bažnyčia,,54.87031,23.94002,https://www.stops.lt/kaunas/index.html#stop/393,,
2677,,Švč. Jėzaus Širdies bažnyčia,,54.87059,23.93935,https://www.stops.lt/kaunas/index.html#stop/394,,
5118,,Danų g.,,54.87084,23.93628,https://www.stops.lt/kaunas/index.html#stop/723,,
2682,,Drobės g.,,54.87031,23.94882,https://www.stops.lt/kaunas/index.html#stop/399,,
2683,,Drobės g.,,54.87047,23.94923,https://www.stops.lt/kaunas/index.html#stop/400,,
2686,,Kauno baldai,,54.87074,23.95381,https://www.stops.lt/kaunas/index.html#stop/405,,
2919,,Kauno baldai,,54.87080,23.95329,https://www.stops.lt/kaunas/index.html#stop/641,,
2684,,Senoji rampa,,54.87417,23.95788,https://www.stops.lt/kaunas/index.html#stop/403,,
2685,,Senoji rampa,,54.87236,23.95750,https://www.stops.lt/kaunas/index.html#stop/404,,
2920,,Švenčionių g.,,54.87641,23.95778,https://www.stops.lt/kaunas/index.html#stop/642,,
14629,,A. Juozapavičiaus pr.,,54.86353,23.95101,https://www.stops.lt/kaunas/index.html#stop/786,,
14630,,A. Juozapavičiaus pr.,,54.86321,23.95037,https://www.stops.lt/kaunas/index.html#stop/787,,
5119,,Kranto 13-oji g.,,54.86579,23.93728,https://www.stops.lt/kaunas/index.html#stop/726,,
5120,,Kranto 13-oji g.,,54.86574,23.93719,https://www.stops.lt/kaunas/index.html#stop/725,,
5123,,Mažeikių g.,,54.87283,23.93363,https://www.stops.lt/kaunas/index.html#stop/728,,
5121,,Talino g.,,54.86836,23.93479,https://www.stops.lt/kaunas/index.html#stop/727,,
5122,,Talino g.,,54.86832,23.93463,https://www.stops.lt/kaunas/index.html#stop/724,,
5115,,Vokiečių g.,,54.86242,23.94299,https://www.stops.lt/kaunas/index.html#stop/722,,
14628,,Vokiečių g.,,54.86290,23.94213,https://www.stops.lt/kaunas/index.html#stop/785,,
2803,,Klinikos,,54.91737,23.92072,https://www.stops.lt/kaunas/index.html#stop/522,,
4374,,Klinikos,,54.91729,23.92053,https://www.stops.lt/kaunas/index.html#stop/688,,
2827,,Jonavos g.,,54.92472,23.91487,https://www.stops.lt/kaunas/index.html#stop/546,,
2828,,Jonavos g.,,54.92404,23.91439,https://www.stops.lt/kaunas/index.html#stop/547,,
2829,,Mokyklos bendrabučiai,,54.91912,23.91318,https://www.stops.lt/kaunas/index.html#stop/548,,
2830,,Mokyklos bendrabučiai,,54.91865,23.91278,https://www.stops.lt/kaunas/index.html#stop/549,,
2835,,P. Kalpoko g.,,54.90711,23.90293,https://www.stops.lt/kaunas/index.html#stop/554,,
2836,,P. Kalpoko g.,,54.90679,23.90192,https://www.stops.lt/kaunas/index.html#stop/555,,
2837,,P. Vileišio tiltas,,54.90372,23.89703,https://www.stops.lt/kaunas/index.html#stop/556,,
2838,,P. Vileišio tiltas,,54.90277,23.89539,https://www.stops.lt/kaunas/index.html#stop/557,,
14405,,Senukai,,54.90541,23.89989,https://www.stops.lt/kaunas/index.html#stop/764,,
14406,,Senukai,,54.90533,23.89938,https://www.stops.lt/kaunas/index.html#stop/765,,
2825,,Šiaurės pr.,,54.92985,23.91651,https://www.stops.lt/kaunas/index.html#stop/544,,
2826,,Šiaurės pr.,,54.92884,23.91586,https://www.stops.lt/kaunas/index.html#stop/545,,
2833,,Varnių tiltas,,54.91228,23.91026,https://www.stops.lt/kaunas/index.html#stop/552,,
2834,,Varnių tiltas,,54.91486,23.91196,https://www.stops.lt/kaunas/index.html#stop/553,,
2720,,K. Petrausko g.,,54.90809,23.92942,https://www.stops.lt/kaunas/index.html#stop/439,,
2771,,Ledo arena,,54.90376,23.93171,https://www.stops.lt/kaunas/index.html#stop/490,,
2772,,Ledo arena,,54.90438,23.93161,https://www.stops.lt/kaunas/index.html#stop/491,,
2773,,Sporto g.,,54.89943,23.93217,https://www.stops.lt/kaunas/index.html#stop/492,,
2774,,Sporto g.,,54.90010,23.93179,https://www.stops.lt/kaunas/index.html#stop/493,,
2722,,Aukštaičių g.,,54.90592,23.92143,https://www.stops.lt/kaunas/index.html#stop/441,,
2723,,Aukštaičių g.,,54.90541,23.91946,https://www.stops.lt/kaunas/index.html#stop/442,,
2707,,Baldų parduotuvė,,54.92168,23.95774,https://www.stops.lt/kaunas/index.html#stop/426,,
2708,,Baldų parduotuvė,,54.92119,23.95629,https://www.stops.lt/kaunas/index.html#stop/427,,
2702,,Kalniečių poliklinika,,54.92472,23.96457,https://www.stops.lt/kaunas/index.html#stop/421,,
2706,,Kalniečių poliklinika,,54.92342,23.96125,https://www.stops.lt/kaunas/index.html#stop/425,,
2701,,Kalniečių turgavietė,,54.92499,23.96474,https://www.stops.lt/kaunas/index.html#stop/420,,
2713,,Kauno aklųjų ir silpnaregių centras,,54.91289,23.93784,https://www.stops.lt/kaunas/index.html#stop/432,,
2714,,Kauno aklųjų ir silpnaregių centras,,54.91159,23.93514,https://www.stops.lt/kaunas/index.html#stop/433,,
2717,,Kauno aklųjų ir silpnaregių centras,,54.91285,23.93830,https://www.stops.lt/kaunas/index.html#stop/436,,
2848,,Laisvės alėja,,54.89864,23.90226,https://www.stops.lt/kaunas/index.html#stop/568,,
2711,,Mituvos g.,,54.91527,23.94320,https://www.stops.lt/kaunas/index.html#stop/430,,
2712,,Mituvos g.,,54.91570,23.94456,https://www.stops.lt/kaunas/index.html#stop/431,,
2709,,Ortopedijos technika,,54.91856,23.95052,https://www.stops.lt/kaunas/index.html#stop/428,,
2710,,Ortopedijos technika,,54.91921,23.95225,https://www.stops.lt/kaunas/index.html#stop/429,,
2705,,Savas,,54.92361,23.96203,https://www.stops.lt/kaunas/index.html#stop/424,,
2718,,Utenos g.,,54.90958,23.93103,https://www.stops.lt/kaunas/index.html#stop/437,,
2719,,Utenos g.,,54.90826,23.92735,https://www.stops.lt/kaunas/index.html#stop/438,,
2724,,Žemaičių g.,,54.90367,23.91519,https://www.stops.lt/kaunas/index.html#stop/443,,
2725,,Žemaičių g.,,54.90366,23.91473,https://www.stops.lt/kaunas/index.html#stop/444,,
2804,,Eivenių g.,,54.91552,23.92357,https://www.stops.lt/kaunas/index.html#stop/523,,
2715,,Kauno aklųjų ir silpnaregių centras,,54.91157,23.93799,https://www.stops.lt/kaunas/index.html#stop/434,,
2716,,Kauno aklųjų ir silpnaregių centras,,54.91173,23.93829,https://www.stops.lt/kaunas/index.html#stop/435,,
2819,,P. Dovydaičio g.,,54.91185,23.92527,https://www.stops.lt/kaunas/index.html#stop/538,,
2820,,P. Dovydaičio g.,,54.91108,23.92560,https://www.stops.lt/kaunas/index.html#stop/539,,
2721,,Utenos g.,,54.90923,23.92820,https://www.stops.lt/kaunas/index.html#stop/440,,
